$GPGGA,051351.000,5243.6425,N,01013.5480,E,1,11,,74.5,M,,M,,*56
$GPWPL,5243.6425,N,01013.5480,E,Position 1*6C
$GPRMC,051351.000,A,5243.6425,N,01013.5480,E,0.1,,120717,,A*63
$GPZDA,051351.000,12,07,2017,,*55
$GPVTG,,T,,M,0.1,N,0.1,K,A*23
$GPGSA,A,3,,,,,,,,,,,,,1.5,0.8,1.3*3C
$GPGGA,051411.000,5243.6530,N,01013.5645,E,1,11,,78.2,M,,M,,*50
$GPWPL,5243.6530,N,01013.5645,E,Position 2*61
$GPRMC,051411.000,A,5243.6530,N,01013.5645,E,14.7,,120717,,A*5D
$GPZDA,051411.000,12,07,2017,,*56
$GPVTG,49.1,T,,M,14.7,N,27.2,K,A*34
$GPGSA,A,3,,,,,,,,,,,,,1.5,0.8,1.3*3C
$GPGGA,051424.000,5243.6994,N,01013.6534,E,1,12,,77.7,M,,M,,*5B
$GPWPL,5243.6994,N,01013.6534,E,Position 3*64
$GPRMC,051424.000,A,5243.6994,N,01013.6534,E,22.8,,120717,,A*55
$GPZDA,051424.000,12,07,2017,,*50
$GPVTG,47.3,T,,M,22.8,N,42.2,K,A*31
$GPGSA,A,3,,,,,,,,,,,,,1.1,0.5,0.9*3E
$GPGGA,051432.000,5243.7357,N,01013.7162,E,1,12,,81.2,M,,M,,*52
$GPWPL,5243.7357,N,01013.7162,E,Position 4*61
$GPRMC,051432.000,A,5243.7357,N,01013.7162,E,24.6,,120717,,A*58
$GPZDA,051432.000,12,07,2017,,*57
$GPVTG,44.1,T,,M,24.6,N,45.6,K,A*3B
$GPGSA,A,3,,,,,,,,,,,,,1.1,0.6,0.9*3D
$GPGGA,051437.000,5243.7608,N,01013.7549,E,1,12,,81.2,M,,M,,*55
$GPWPL,5243.7608,N,01013.7549,E,Position 5*62
$GPRMC,051437.000,A,5243.7608,N,01013.7549,E,25.5,,120717,,A*5D
$GPZDA,051437.000,12,07,2017,,*52
$GPVTG,40.9,T,,M,25.5,N,47.2,K,A*33
$GPGSA,A,3,,,,,,,,,,,,,1.1,0.5,0.9*3E
$GPGGA,051443.000,5243.7932,N,01013.8006,E,1,12,,80.2,M,,M,,*50
$GPWPL,5243.7932,N,01013.8006,E,Position 6*66
$GPRMC,051443.000,A,5243.7932,N,01013.8006,E,25.8,,120717,,A*54
$GPZDA,051443.000,12,07,2017,,*51
$GPVTG,38.5,T,,M,25.8,N,47.8,K,A*37
$GPGSA,A,3,,,,,,,,,,,,,1.1,0.6,1.0*35
$GPGGA,051455.000,5243.8611,N,01013.8920,E,1,12,,78.1,M,,M,,*5F
$GPWPL,5243.8611,N,01013.8920,E,Position 7*6B
$GPRMC,051455.000,A,5243.8611,N,01013.8920,E,26.1,,120717,,A*55
$GPZDA,051455.000,12,07,2017,,*56
$GPVTG,38.6,T,,M,26.1,N,48.3,K,A*3A
$GPGSA,A,3,,,,,,,,,,,,,1.1,0.6,0.9*3D
$GPGGA,051513.000,5243.9572,N,01014.0190,E,1,12,,74.0,M,,M,,*5A
$GPWPL,5243.9572,N,01014.0190,E,Position 8*6F
$GPRMC,051513.000,A,5243.9572,N,01014.0190,E,20.2,,120717,,A*58
$GPZDA,051513.000,12,07,2017,,*55
$GPVTG,38.9,T,,M,20.2,N,37.4,K,A*3F
$GPGSA,A,3,,,,,,,,,,,,,1.2,0.6,1.1*37
$GPGGA,051521.000,5243.9752,N,01014.0460,E,1,12,,72.2,M,,M,,*55
$GPWPL,5243.9752,N,01014.0460,E,Position 9*64
$GPRMC,051521.000,A,5243.9752,N,01014.0460,E,0.9,,120717,,A*6A
$GPZDA,051521.000,12,07,2017,,*54
$GPVTG,35.7,T,,M,0.9,N,1.7,K,A*33
$GPGSA,A,3,,,,,,,,,,,,,1.2,0.6,1.0*36
$GPGGA,051641.000,5243.9841,N,01014.0537,E,1,10,,75.0,M,,M,,*59
$GPWPL,5243.9841,N,01014.0537,E,Position 10*52
$GPRMC,051641.000,A,5243.9841,N,01014.0537,E,10.4,,120717,,A*5D
$GPZDA,051641.000,12,07,2017,,*51
$GPVTG,38.3,T,,M,10.4,N,19.3,K,A*3B
$GPGSA,A,3,,,,,,,,,,,,,2.0,0.9,1.8*30
$GPGGA,051716.000,5244.0314,N,01014.1182,E,1,5,,76.3,M,,M,,*60
$GPWPL,5244.0314,N,01014.1182,E,Position 11*5D
$GPRMC,051716.000,A,5244.0314,N,01014.1182,E,,,120717,,A*4B
$GPZDA,051716.000,12,07,2017,,*52
$GPGSA,A,3,,,,,,,,,,,,,4.6,1.4,4.3*32
$GPGGA,051729.000,5244.0371,N,01014.1178,E,1,10,,84.9,M,,M,,*59
$GPWPL,5244.0371,N,01014.1178,E,Position 12*58
$GPRMC,051729.000,A,5244.0371,N,01014.1178,E,10.7,,120717,,A*59
$GPZDA,051729.000,12,07,2017,,*5E
$GPVTG,332.7,T,,M,10.7,N,19.8,K,A*0E
$GPGSA,A,3,,,,,,,,,,,,,2.0,0.9,1.8*30
$GPGGA,051732.000,5244.0459,N,01014.1093,E,1,10,,84.9,M,,M,,*5A
$GPWPL,5244.0459,N,01014.1093,E,Position 13*50
$GPRMC,051732.000,A,5244.0459,N,01014.1093,E,16.3,,120717,,A*58
$GPZDA,051732.000,12,07,2017,,*54
$GPVTG,337.5,T,,M,16.3,N,30.2,K,A*0A
$GPGSA,A,3,,,,,,,,,,,,,2.0,0.9,1.8*30
$GPGGA,051736.000,5244.0628,N,01014.0963,E,1,10,,83.2,M,,M,,*51
$GPWPL,5244.0628,N,01014.0963,E,Position 14*54
$GPRMC,051736.000,A,5244.0628,N,01014.0963,E,18.3,,120717,,A*51
$GPZDA,051736.000,12,07,2017,,*50
$GPVTG,335.1,T,,M,18.3,N,33.9,K,A*0A
$GPGSA,A,3,,,,,,,,,,,,,2.0,0.9,1.8*30
$GPGGA,051740.000,5244.0820,N,01014.0837,E,1,6,,84.9,M,,M,,*6D
$GPWPL,5244.0820,N,01014.0837,E,Position 15*53
$GPRMC,051740.000,A,5244.0820,N,01014.0837,E,17.2,,120717,,A*58
$GPZDA,051740.000,12,07,2017,,*51
$GPVTG,331.9,T,,M,17.2,N,31.9,K,A*0A
$GPGSA,A,3,,,,,,,,,,,,,3.2,1.6,2.8*3E
$GPGGA,051742.000,5244.0903,N,01014.0760,E,1,6,,83.4,M,,M,,*68
$GPWPL,5244.0903,N,01014.0760,E,Position 16*5D
$GPRMC,051742.000,A,5244.0903,N,01014.0760,E,17.2,,120717,,A*57
$GPZDA,051742.000,12,07,2017,,*53
$GPVTG,336.0,T,,M,17.2,N,31.9,K,A*04
$GPGSA,A,3,,,,,,,,,,,,,3.2,1.6,2.8*3E
$GPGGA,051748.000,5244.1169,N,01014.0568,E,1,12,,79.0,M,,M,,*59
$GPWPL,5244.1169,N,01014.0568,E,Position 17*53
$GPRMC,051748.000,A,5244.1169,N,01014.0568,E,18.1,,120717,,A*5E
$GPZDA,051748.000,12,07,2017,,*59
$GPVTG,334.4,T,,M,18.1,N,33.5,K,A*00
$GPGSA,A,3,,,,,,,,,,,,,1.5,0.7,1.3*33
$GPGGA,051756.000,5244.1514,N,01014.0278,E,1,12,,74.7,M,,M,,*54
$GPWPL,5244.1514,N,01014.0278,E,Position 18*54
$GPRMC,051756.000,A,5244.1514,N,01014.0278,E,16.4,,120717,,A*52
$GPZDA,051756.000,12,07,2017,,*56
$GPVTG,335.5,T,,M,16.4,N,30.4,K,A*09
$GPGSA,A,3,,,,,,,,,,,,,1.2,0.6,1.1*37
$GPGGA,051811.000,5244.2127,N,01013.9801,E,1,12,,75.1,M,,M,,*52
$GPWPL,5244.2127,N,01013.9801,E,Position 19*58
$GPRMC,051811.000,A,5244.2127,N,01013.9801,E,14.6,,120717,,A*53
$GPZDA,051811.000,12,07,2017,,*5A
$GPVTG,337.8,T,,M,14.6,N,27.0,K,A*04
$GPGSA,A,3,,,,,,,,,,,,,1.3,0.6,1.1*36
$GPGGA,051817.000,5244.2363,N,01013.9645,E,1,12,,72.8,M,,M,,*56
$GPWPL,5244.2363,N,01013.9645,E,Position 20*5E
$GPRMC,051817.000,A,5244.2363,N,01013.9645,E,14.7,,120717,,A*58
$GPZDA,051817.000,12,07,2017,,*5C
$GPVTG,335.0,T,,M,14.7,N,27.2,K,A*0D
$GPGSA,A,3,,,,,,,,,,,,,1.3,0.6,1.1*36
$GPGGA,051832.000,5244.2982,N,01013.9184,E,1,12,,73.5,M,,M,,*52
$GPWPL,5244.2982,N,01013.9184,E,Position 21*50
$GPRMC,051832.000,A,5244.2982,N,01013.9184,E,15.8,,120717,,A*5E
$GPZDA,051832.000,12,07,2017,,*5B
$GPVTG,338.7,T,,M,15.8,N,29.3,K,A*06
$GPGSA,A,3,,,,,,,,,,,,,1.4,0.6,1.2*32
$GPGGA,051835.000,5244.3110,N,01013.9103,E,1,12,,72.7,M,,M,,*5B
$GPWPL,5244.3110,N,01013.9103,E,Position 22*5E
$GPRMC,051835.000,A,5244.3110,N,01013.9103,E,16.4,,120717,,A*5B
$GPZDA,051835.000,12,07,2017,,*5C
$GPVTG,333.2,T,,M,16.4,N,30.4,K,A*08
$GPGSA,A,3,,,,,,,,,,,,,1.3,0.6,1.1*36
$GPGGA,051840.000,5244.3320,N,01013.8927,E,1,12,,71.4,M,,M,,*57
$GPWPL,5244.3320,N,01013.8927,E,Position 23*51
$GPRMC,051840.000,A,5244.3320,N,01013.8927,E,16.2,,120717,,A*51
$GPZDA,051840.000,12,07,2017,,*5E
$GPVTG,336.1,T,,M,16.2,N,30.0,K,A*0C
$GPGSA,A,3,,,,,,,,,,,,,1.4,0.7,1.2*33
$GPGGA,051851.000,5244.3792,N,01013.8576,E,1,12,,69.6,M,,M,,*59
$GPWPL,5244.3792,N,01013.8576,E,Position 24*53
$GPRMC,051851.000,A,5244.3792,N,01013.8576,E,16.7,,120717,,A*51
$GPZDA,051851.000,12,07,2017,,*5E
$GPVTG,341.7,T,,M,16.7,N,30.9,K,A*06
$GPGSA,A,3,,,,,,,,,,,,,1.3,0.6,1.1*36
$GPGGA,051854.000,5244.3923,N,01013.8517,E,1,12,,68.0,M,,M,,*58
$GPWPL,5244.3923,N,01013.8517,E,Position 25*51
$GPRMC,051854.000,A,5244.3923,N,01013.8517,E,15.8,,120717,,A*5B
$GPZDA,051854.000,12,07,2017,,*5B
$GPVTG,354.8,T,,M,15.8,N,29.3,K,A*03
$GPGSA,A,3,,,,,,,,,,,,,1.3,0.6,1.1*36
$GPGGA,051906.000,5244.4415,N,01013.8443,E,1,12,,67.4,M,,M,,*5A
$GPWPL,5244.4415,N,01013.8443,E,Position 26*5D
$GPRMC,051906.000,A,5244.4415,N,01013.8443,E,7.9,,120717,,A*60
$GPZDA,051906.000,12,07,2017,,*5D
$GPVTG,324.3,T,,M,7.9,N,14.6,K,A*36
$GPGSA,A,3,,,,,,,,,,,,,1.3,0.6,1.1*36
$GPGGA,051908.000,5244.4446,N,01013.8399,E,1,12,,67.9,M,,M,,*5F
$GPWPL,5244.4446,N,01013.8399,E,Position 27*5A
$GPRMC,051908.000,A,5244.4446,N,01013.8399,E,8.2,,120717,,A*6C
$GPZDA,051908.000,12,07,2017,,*53
$GPVTG,269.1,T,,M,8.2,N,15.2,K,A*3D
$GPGSA,A,3,,,,,,,,,,,,,1.2,0.6,1.0*36
$GPGGA,051909.000,5244.4447,N,01013.8363,E,1,12,,67.8,M,,M,,*5B
$GPWPL,5244.4447,N,01013.8363,E,Position 28*51
$GPRMC,051909.000,A,5244.4447,N,01013.8363,E,8.2,,120717,,A*69
$GPZDA,051909.000,12,07,2017,,*52
$GPVTG,250.9,T,,M,8.2,N,15.2,K,A*3F
$GPGSA,A,3,,,,,,,,,,,,,1.2,0.6,1.0*36
$GPGGA,051911.000,5244.4426,N,01013.8300,E,1,12,,68.1,M,,M,,*56
$GPWPL,5244.4426,N,01013.8300,E,Position 29*52
$GPRMC,051911.000,A,5244.4426,N,01013.8300,E,7.0,,120717,,A*6F
$GPZDA,051911.000,12,07,2017,,*5B
$GPVTG,227.4,T,,M,7.0,N,13.0,K,A*3B
$GPGSA,A,3,,,,,,,,,,,,,1.2,0.6,1.0*36
$GPGGA,051922.000,5244.4344,N,01013.8176,E,1,12,,70.1,M,,M,,*5F
$GPWPL,5244.4344,N,01013.8176,E,Position 30*5A
$GPRMC,051922.000,A,5244.4344,N,01013.8176,E,0.1,,120717,,A*69
$GPZDA,051922.000,12,07,2017,,*5B
$GPVTG,,T,,M,0.1,N,0.1,K,A*23
$GPGSA,A,3,,,,,,,,,,,,,1.2,0.6,1.1*37
$GPGGA,052000.000,5244.4330,N,01013.8133,E,1,9,,81.3,M,,M,,*61
$GPWPL,5244.4330,N,01013.8133,E,Position 31*59
$GPRMC,052000.000,A,5244.4330,N,01013.8133,E,3.5,,120717,,A*66
$GPZDA,052000.000,12,07,2017,,*51
$GPVTG,209.0,T,,M,3.5,N,6.5,K,A*03
$GPGSA,A,3,,,,,,,,,,,,,2.3,1.0,2.1*31
$GPGGA,052003.000,5244.4290,N,01013.8131,E,1,10,,82.2,M,,M,,*51
$GPWPL,5244.4290,N,01013.8131,E,Position 32*53
$GPRMC,052003.000,A,5244.4290,N,01013.8131,E,7.8,,120717,,A*65
$GPZDA,052003.000,12,07,2017,,*52
$GPVTG,155.5,T,,M,7.8,N,14.4,K,A*37
$GPGSA,A,3,,,,,,,,,,,,,2.0,0.9,1.8*30
$GPGGA,052011.000,5244.4064,N,01013.8308,E,1,10,,76.2,M,,M,,*58
$GPWPL,5244.4064,N,01013.8308,E,Position 33*53
$GPRMC,052011.000,A,5244.4064,N,01013.8308,E,12.0,,120717,,A*5B
$GPZDA,052011.000,12,07,2017,,*51
$GPVTG,149.6,T,,M,12.0,N,22.2,K,A*06
$GPGSA,A,3,,,,,,,,,,,,,2.0,0.9,1.8*30
$GPGGA,052015.000,5244.3963,N,01013.8433,E,1,4,,75.1,M,,M,,*6F
$GPWPL,5244.3963,N,01013.8433,E,Position 34*52
$GPRMC,052015.000,A,5244.3963,N,01013.8433,E,10.4,,120717,,A*5F
$GPZDA,052015.000,12,07,2017,,*55
$GPVTG,148.3,T,,M,10.4,N,19.3,K,A*0D
$GPGSA,A,3,,,,,,,,,,,,,12.8,2.3,12.6*3D
$GPGGA,052017.000,5244.3906,N,01013.8484,E,1,12,,74.9,M,,M,,*5C
$GPWPL,5244.3906,N,01013.8484,E,Position 35*5C
$GPRMC,052017.000,A,5244.3906,N,01013.8484,E,13.9,,120717,,A*5C
$GPZDA,052017.000,12,07,2017,,*57
$GPVTG,159.9,T,,M,13.9,N,25.7,K,A*02
$GPGSA,A,3,,,,,,,,,,,,,1.3,0.6,1.2*35
$GPGGA,052031.000,5244.3317,N,01013.8884,E,1,12,,73.9,M,,M,,*59
$GPWPL,5244.3317,N,01013.8884,E,Position 36*59
$GPRMC,052031.000,A,5244.3317,N,01013.8884,E,16.5,,120717,,A*57
$GPZDA,052031.000,12,07,2017,,*53
$GPVTG,155.9,T,,M,16.5,N,30.6,K,A*02
$GPGSA,A,3,,,,,,,,,,,,,1.2,0.6,1.1*37
$GPGGA,052037.000,5244.3086,N,01013.9087,E,1,12,,73.7,M,,M,,*50
$GPWPL,5244.3086,N,01013.9087,E,Position 37*59
$GPRMC,052037.000,A,5244.3086,N,01013.9087,E,13.0,,120717,,A*50
$GPZDA,052037.000,12,07,2017,,*55
$GPVTG,163.8,T,,M,13.0,N,24.1,K,A*04
$GPGSA,A,3,,,,,,,,,,,,,1.5,0.7,1.3*33
$GPGGA,052043.000,5244.2857,N,01013.9232,E,1,12,,73.9,M,,M,,*54
$GPWPL,5244.2857,N,01013.9232,E,Position 38*5F
$GPRMC,052043.000,A,5244.2857,N,01013.9232,E,15.0,,120717,,A*5C
$GPZDA,052043.000,12,07,2017,,*56
$GPVTG,155.1,T,,M,15.0,N,27.8,K,A*04
$GPGSA,A,3,,,,,,,,,,,,,1.2,0.6,1.1*37
$GPGGA,052054.000,5244.2431,N,01013.9569,E,1,12,,72.4,M,,M,,*5B
$GPWPL,5244.2431,N,01013.9569,E,Position 39*5B
$GPRMC,052054.000,A,5244.2431,N,01013.9569,E,15.6,,120717,,A*59
$GPZDA,052054.000,12,07,2017,,*50
$GPVTG,154.4,T,,M,15.6,N,28.9,K,A*08
$GPGSA,A,3,,,,,,,,,,,,,1.5,0.7,1.3*33
$GPGGA,052101.000,5244.2149,N,01013.9755,E,1,12,,70.1,M,,M,,*5A
$GPWPL,5244.2149,N,01013.9755,E,Position 40*52
$GPRMC,052101.000,A,5244.2149,N,01013.9755,E,15.0,,120717,,A*59
$GPZDA,052101.000,12,07,2017,,*51
$GPVTG,156.2,T,,M,15.0,N,27.8,K,A*04
$GPGSA,A,3,,,,,,,,,,,,,1.4,0.7,1.3*32
$GPGGA,052112.000,5244.1724,N,01014.0070,E,1,12,,67.9,M,,M,,*56
$GPWPL,5244.1724,N,01014.0070,E,Position 41*53
$GPRMC,052112.000,A,5244.1724,N,01014.0070,E,13.9,,120717,,A*54
$GPZDA,052112.000,12,07,2017,,*53
$GPVTG,155.9,T,,M,13.9,N,25.7,K,A*0E
$GPGSA,A,3,,,,,,,,,,,,,1.3,0.6,1.2*35
$GPGGA,052123.000,5244.1307,N,01014.0387,E,1,12,,67.8,M,,M,,*5B
$GPWPL,5244.1307,N,01014.0387,E,Position 42*5E
$GPRMC,052123.000,A,5244.1307,N,01014.0387,E,12.6,,120717,,A*56
$GPZDA,052123.000,12,07,2017,,*51
$GPVTG,142.9,T,,M,12.6,N,23.3,K,A*04
$GPGSA,A,3,,,,,,,,,,,,,1.3,0.6,1.1*36
$GPGGA,052125.000,5244.1241,N,01014.0451,E,1,12,,69.7,M,,M,,*53
$GPWPL,5244.1241,N,01014.0451,E,Position 43*50
$GPRMC,052125.000,A,5244.1241,N,01014.0451,E,14.0,,120717,,A*5F
$GPZDA,052125.000,12,07,2017,,*57
$GPVTG,155.1,T,,M,14.0,N,25.9,K,A*06
$GPGSA,A,3,,,,,,,,,,,,,1.3,0.6,1.1*36
$GPGGA,052132.000,5244.0971,N,01014.0662,E,1,12,,68.7,M,,M,,*5F
$GPWPL,5244.0971,N,01014.0662,E,Position 44*5C
$GPRMC,052132.000,A,5244.0971,N,01014.0662,E,14.6,,120717,,A*54
$GPZDA,052132.000,12,07,2017,,*51
$GPVTG,155.9,T,,M,14.6,N,27.0,K,A*03
$GPGSA,A,3,,,,,,,,,,,,,1.4,0.7,1.3*32
$GPGGA,052140.000,5244.0640,N,01014.0891,E,1,12,,67.3,M,,M,,*5E
$GPWPL,5244.0640,N,01014.0891,E,Position 45*52
$GPRMC,052140.000,A,5244.0640,N,01014.0891,E,15.1,,120717,,A*58
$GPZDA,052140.000,12,07,2017,,*54
$GPVTG,154.0,T,,M,15.1,N,28.0,K,A*02
$GPGSA,A,3,,,,,,,,,,,,,1.5,0.7,1.3*33
$GPGGA,052208.000,5244.0388,N,01014.1086,E,1,12,,69.0,M,,M,,*52
$GPWPL,5244.0388,N,01014.1086,E,Position 46*5F
$GPRMC,052208.000,A,5244.0388,N,01014.1086,E,11.0,,120717,,A*5C
$GPZDA,052208.000,12,07,2017,,*5B
$GPVTG,168.2,T,,M,11.0,N,20.4,K,A*06
$GPGSA,A,3,,,,,,,,,,,,,1.3,0.7,1.1*37
$GPGGA,052211.000,5244.0283,N,01014.1104,E,1,12,,67.0,M,,M,,*55
$GPWPL,5244.0283,N,01014.1104,E,Position 47*5F
$GPRMC,052211.000,A,5244.0283,N,01014.1104,E,12.8,,120717,,A*5E
$GPZDA,052211.000,12,07,2017,,*53
$GPVTG,165.3,T,,M,12.8,N,23.7,K,A*01
$GPGSA,A,3,,,,,,,,,,,,,1.4,0.7,1.2*33
$GPGGA,052213.000,5244.0218,N,01014.1145,E,1,4,,66.4,M,,M,,*62
$GPWPL,5244.0218,N,01014.1145,E,Position 48*57
$GPRMC,052213.000,A,5244.0218,N,01014.1145,E,12.2,,120717,,A*51
$GPZDA,052213.000,12,07,2017,,*51
$GPVTG,127.6,T,,M,12.2,N,22.6,K,A*08
$GPGSA,A,3,,,,,,,,,,,,,7.2,2.0,6.9*3A
$GPGGA,052216.000,5244.0139,N,01014.1286,E,1,3,,66.5,M,,M,,*6D
$GPWPL,5244.0139,N,01014.1286,E,Position 49*5A
$GPRMC,052216.000,A,5244.0139,N,01014.1286,E,18.9,,120717,,A*59
$GPZDA,052216.000,12,07,2017,,*54
$GPVTG,119.1,T,,M,18.9,N,35.0,K,A*03
$GPGSA,A,3,,,,,,,,,,,,,2.2,2.0,1.0*31
$GPGGA,052217.000,5244.0113,N,01014.1359,E,1,3,,66.6,M,,M,,*64
$GPWPL,5244.0113,N,01014.1359,E,Position 50*59
$GPRMC,052217.000,A,5244.0113,N,01014.1359,E,21.8,,120717,,A*58
$GPZDA,052217.000,12,07,2017,,*55
$GPVTG,109.5,T,,M,21.8,N,40.4,K,A*0B
$GPGSA,A,3,,,,,,,,,,,,,2.2,2.0,1.0*31
$GPGGA,052219.000,5244.0065,N,01014.1545,E,1,4,,66.3,M,,M,,*63
$GPWPL,5244.0065,N,01014.1545,E,Position 51*53
$GPRMC,052219.000,A,5244.0065,N,01014.1545,E,23.2,,120717,,A*55
$GPZDA,052219.000,12,07,2017,,*5B
$GPVTG,121.1,T,,M,23.2,N,43.0,K,A*0A
$GPGSA,A,3,,,,,,,,,,,,,7.2,2.0,6.9*3A
$GPGGA,052223.000,5243.9942,N,01014.1906,E,1,4,,65.8,M,,M,,*6B
$GPWPL,5243.9942,N,01014.1906,E,Position 52*59
$GPRMC,052223.000,A,5243.9942,N,01014.1906,E,25.1,,120717,,A*50
$GPZDA,052223.000,12,07,2017,,*52
$GPVTG,117.7,T,,M,25.1,N,46.5,K,A*0C
$GPGSA,A,3,,,,,,,,,,,,,7.3,2.0,7.0*33
$GPGGA,052225.000,5243.9886,N,01014.2122,E,1,4,,66.0,M,,M,,*62
$GPWPL,5243.9886,N,01014.2122,E,Position 53*5C
$GPRMC,052225.000,A,5243.9886,N,01014.2122,E,24.1,,120717,,A*53
$GPZDA,052225.000,12,07,2017,,*54
$GPVTG,119.1,T,,M,24.1,N,44.6,K,A*04
$GPGSA,A,3,,,,,,,,,,,,,7.3,2.0,7.0*33
$GPGGA,052230.000,5243.9717,N,01014.2602,E,1,3,,66.0,M,,M,,*63
$GPWPL,5243.9717,N,01014.2602,E,Position 54*59
$GPRMC,052230.000,A,5243.9717,N,01014.2602,E,23.8,,120717,,A*5B
$GPZDA,052230.000,12,07,2017,,*50
$GPVTG,118.3,T,,M,23.8,N,44.1,K,A*0E
$GPGSA,A,3,,,,,,,,,,,,,2.2,2.0,1.0*31
$GPGGA,052231.000,5243.9700,N,01014.2756,E,1,12,,60.8,M,,M,,*5A
$GPWPL,5243.9700,N,01014.2756,E,Position 55*5E
$GPRMC,052231.000,A,5243.9700,N,01014.2756,E,23.8,,120717,,A*5C
$GPZDA,052231.000,12,07,2017,,*51
$GPVTG,116.9,T,,M,23.8,N,44.1,K,A*0A
$GPGSA,A,3,,,,,,,,,,,,,1.5,0.7,1.3*33
$GPGGA,052234.000,5243.9609,N,01014.3036,E,1,3,,61.0,M,,M,,*6E
$GPWPL,5243.9609,N,01014.3036,E,Position 56*55
$GPRMC,052234.000,A,5243.9609,N,01014.3036,E,17.5,,120717,,A*5B
$GPZDA,052234.000,12,07,2017,,*54
$GPVTG,118.1,T,,M,17.5,N,32.4,K,A*02
$GPGSA,A,3,,,,,,,,,,,,,2.2,2.0,1.0*31
$GPGGA,052236.000,5243.9582,N,01014.3184,E,1,3,,60.7,M,,M,,*62
$GPWPL,5243.9582,N,01014.3184,E,Position 57*5C
$GPRMC,052236.000,A,5243.9582,N,01014.3184,E,21.7,,120717,,A*56
$GPZDA,052236.000,12,07,2017,,*56
$GPVTG,112.0,T,,M,21.7,N,40.2,K,A*0D
$GPGSA,A,3,,,,,,,,,,,,,2.2,2.0,1.0*31
$GPGGA,052241.000,5243.9486,N,01014.3580,E,1,4,,61.8,M,,M,,*6E
$GPWPL,5243.9486,N,01014.3580,E,Position 58*56
$GPRMC,052241.000,A,5243.9486,N,01014.3580,E,12.9,,120717,,A*5D
$GPZDA,052241.000,12,07,2017,,*56
$GPVTG,158.0,T,,M,12.9,N,23.9,K,A*03
$GPGSA,A,3,,,,,,,,,,,,,7.4,2.0,7.1*35
$GPGGA,052242.000,5243.9401,N,01014.3495,E,1,12,,62.1,M,,M,,*5A
$GPWPL,5243.9401,N,01014.3495,E,Position 59*5D
$GPRMC,052242.000,A,5243.9401,N,01014.3495,E,10.9,,120717,,A*56
$GPZDA,052242.000,12,07,2017,,*55
$GPVTG,171.2,T,,M,10.9,N,20.2,K,A*00
$GPGSA,A,3,,,,,,,,,,,,,2.0,0.9,1.8*30
$GPGGA,052243.000,5243.9373,N,01014.3515,E,1,12,,62.4,M,,M,,*55
$GPWPL,5243.9373,N,01014.3515,E,Position 60*5C
$GPRMC,052243.000,A,5243.9373,N,01014.3515,E,12.1,,120717,,A*56
$GPZDA,052243.000,12,07,2017,,*54
$GPVTG,178.5,T,,M,12.1,N,22.4,K,A*00
$GPGSA,A,3,,,,,,,,,,,,,1.5,0.7,1.3*33
$GPGGA,052251.000,5243.9173,N,01014.3558,E,1,12,,58.5,M,,M,,*55
$GPWPL,5243.9173,N,01014.3558,E,Position 61*56
$GPRMC,052251.000,A,5243.9173,N,01014.3558,E,2.2,,120717,,A*6C
$GPZDA,052251.000,12,07,2017,,*57
$GPVTG,178.2,T,,M,2.2,N,4.1,K,A*04
$GPGSA,A,3,,,,,,,,,,,,,1.4,0.6,1.2*32
$GPGGA,052347.000,5243.9042,N,01014.3618,E,1,9,,67.5,M,,M,,*61
$GPWPL,5243.9042,N,01014.3618,E,Position 62*51
$GPRMC,052347.000,A,5243.9042,N,01014.3618,E,16.9,,120717,,A*50
$GPZDA,052347.000,12,07,2017,,*51
$GPVTG,176.0,T,,M,16.9,N,31.3,K,A*02
$GPGSA,A,3,,,,,,,,,,,,,2.2,0.9,2.0*39
$GPGGA,052354.000,5243.8643,N,01014.3671,E,1,8,,63.4,M,,M,,*6E
$GPWPL,5243.8643,N,01014.3671,E,Position 63*59
$GPRMC,052354.000,A,5243.8643,N,01014.3671,E,23.2,,120717,,A*56
$GPZDA,052354.000,12,07,2017,,*53
$GPVTG,166.0,T,,M,23.2,N,43.0,K,A*08
$GPGSA,A,3,,,,,,,,,,,,,2.3,1.0,2.1*31
$GPGGA,052355.000,5243.8580,N,01014.3694,E,1,9,,63.4,M,,M,,*69
$GPWPL,5243.8580,N,01014.3694,E,Position 64*59
$GPRMC,052355.000,A,5243.8580,N,01014.3694,E,23.5,,120717,,A*57
$GPZDA,052355.000,12,07,2017,,*52
$GPVTG,159.3,T,,M,23.5,N,43.5,K,A*05
$GPGSA,A,3,,,,,,,,,,,,,2.2,0.9,2.0*39
$GPGGA,052357.000,5243.8458,N,01014.3781,E,1,9,,65.6,M,,M,,*6E
$GPWPL,5243.8458,N,01014.3781,E,Position 65*59
$GPRMC,052357.000,A,5243.8458,N,01014.3781,E,24.2,,120717,,A*54
$GPZDA,052357.000,12,07,2017,,*50
$GPVTG,147.1,T,,M,24.2,N,44.8,K,A*02
$GPGSA,A,3,,,,,,,,,,,,,2.2,0.9,2.0*39
$GPGGA,052358.000,5243.8401,N,01014.3839,E,1,9,,65.5,M,,M,,*62
$GPWPL,5243.8401,N,01014.3839,E,Position 66*5A
$GPRMC,052358.000,A,5243.8401,N,01014.3839,E,21.7,,120717,,A*5B
$GPZDA,052358.000,12,07,2017,,*5F
$GPVTG,141.3,T,,M,21.7,N,40.2,K,A*08
$GPGSA,A,3,,,,,,,,,,,,,2.2,0.9,2.0*39
$GPGGA,052401.000,5243.8241,N,01014.4045,E,1,9,,67.0,M,,M,,*68
$GPWPL,5243.8241,N,01014.4045,E,Position 67*5D
$GPRMC,052401.000,A,5243.8241,N,01014.4045,E,25.5,,120717,,A*50
$GPZDA,052401.000,12,07,2017,,*54
$GPVTG,142.0,T,,M,25.5,N,47.2,K,A*09
$GPGSA,A,3,,,,,,,,,,,,,2.1,1.0,1.8*39
$GPGGA,052410.000,5243.7750,N,01014.4702,E,1,12,,67.6,M,,M,,*5A
$GPWPL,5243.7750,N,01014.4702,E,Position 68*5C
$GPRMC,052410.000,A,5243.7750,N,01014.4702,E,22.0,,120717,,A*5C
$GPZDA,052410.000,12,07,2017,,*54
$GPVTG,130.9,T,,M,22.0,N,40.7,K,A*05
$GPGSA,A,3,,,,,,,,,,,,,1.5,0.7,1.3*33
$GPGGA,052413.000,5243.7637,N,01014.4932,E,1,12,,67.1,M,,M,,*53
$GPWPL,5243.7637,N,01014.4932,E,Position 69*50
$GPRMC,052413.000,A,5243.7637,N,01014.4932,E,19.1,,120717,,A*5B
$GPZDA,052413.000,12,07,2017,,*57
$GPVTG,119.2,T,,M,19.1,N,35.4,K,A*0D
$GPGSA,A,3,,,,,,,,,,,,,1.6,0.7,1.5*36
$GPGGA,052417.000,5243.7551,N,01014.5183,E,1,12,,66.9,M,,M,,*5E
$GPWPL,5243.7551,N,01014.5183,E,Position 70*58
$GPRMC,052417.000,A,5243.7551,N,01014.5183,E,6.9,,120717,,A*69
$GPZDA,052417.000,12,07,2017,,*53
$GPVTG,145.5,T,,M,6.9,N,12.8,K,A*3C
$GPGSA,A,3,,,,,,,,,,,,,1.4,0.6,1.3*33
$GPGGA,052419.000,5243.7516,N,01014.5216,E,1,12,,66.7,M,,M,,*52
$GPWPL,5243.7516,N,01014.5216,E,Position 71*55
$GPRMC,052419.000,A,5243.7516,N,01014.5216,E,6.5,,120717,,A*67
$GPZDA,052419.000,12,07,2017,,*5D
$GPVTG,185.2,T,,M,6.5,N,12.0,K,A*33
$GPGSA,A,3,,,,,,,,,,,,,1.4,0.6,1.3*33
$GPGGA,052429.000,5243.7300,N,01014.5080,E,1,12,,67.2,M,,M,,*59
$GPWPL,5243.7300,N,01014.5080,E,Position 72*5A
$GPRMC,052429.000,A,5243.7300,N,01014.5080,E,6.9,,120717,,A*64
$GPZDA,052429.000,12,07,2017,,*5E
$GPVTG,206.2,T,,M,6.9,N,12.8,K,A*3F
$GPGSA,A,3,,,,,,,,,,,,,1.6,0.7,1.4*37
$GPGGA,052433.000,5243.7223,N,01014.5014,E,1,12,,67.2,M,,M,,*5F
$GPWPL,5243.7223,N,01014.5014,E,Position 73*56
$GPRMC,052433.000,A,5243.7223,N,01014.5014,E,6.6,,120717,,A*6D
$GPZDA,052433.000,12,07,2017,,*55
$GPVTG,200.0,T,,M,6.6,N,12.2,K,A*3E
$GPGSA,A,3,,,,,,,,,,,,,1.4,0.7,1.3*32
$GPGGA,052441.000,5243.7121,N,01014.4952,E,1,12,,66.4,M,,M,,*56
$GPWPL,5243.7121,N,01014.4952,E,Position 74*5A
$GPRMC,052441.000,A,5243.7121,N,01014.4952,E,,,120717,,A*4D
$GPZDA,052441.000,12,07,2017,,*50
$GPGSA,A,3,,,,,,,,,,,,,1.3,0.6,1.2*35
$GPGGA,052449.000,5243.7129,N,01014.4947,E,1,12,,65.4,M,,M,,*51
$GPWPL,5243.7129,N,01014.4947,E,Position 75*57
$GPRMC,052449.000,A,5243.7129,N,01014.4947,E,2.2,,120717,,A*67
$GPZDA,052449.000,12,07,2017,,*58
$GPVTG,197.8,T,,M,2.2,N,4.1,K,A*0F
$GPGSA,A,3,,,,,,,,,,,,,1.3,0.6,1.2*35
$GPGGA,052455.000,5243.7011,N,01014.4898,E,1,12,,65.7,M,,M,,*56
$GPWPL,5243.7011,N,01014.4898,E,Position 76*5D
$GPRMC,052455.000,A,5243.7011,N,01014.4898,E,10.8,,120717,,A*5A
$GPZDA,052455.000,12,07,2017,,*55
$GPVTG,204.4,T,,M,10.8,N,20.0,K,A*04
$GPGSA,A,3,,,,,,,,,,,,,1.4,0.7,1.3*32
$GPGGA,052511.000,5243.6473,N,01014.4493,E,1,12,,65.5,M,,M,,*53
$GPWPL,5243.6473,N,01014.4493,E,Position 77*5A
$GPRMC,052511.000,A,5243.6473,N,01014.4493,E,15.8,,120717,,A*58
$GPZDA,052511.000,12,07,2017,,*54
$GPVTG,201.7,T,,M,15.8,N,29.3,K,A*0D
$GPGSA,A,3,,,,,,,,,,,,,1.3,0.6,1.1*36
$GPGGA,052520.000,5243.6122,N,01014.4271,E,1,12,,63.1,M,,M,,*58
$GPWPL,5243.6122,N,01014.4271,E,Position 78*5E
$GPRMC,052520.000,A,5243.6122,N,01014.4271,E,15.1,,120717,,A*58
$GPZDA,052520.000,12,07,2017,,*56
$GPVTG,203.2,T,,M,15.1,N,28.0,K,A*01
$GPGSA,A,3,,,,,,,,,,,,,1.3,0.6,1.1*36
$GPGGA,052525.000,5243.5932,N,01014.4126,E,1,4,,63.2,M,,M,,*62
$GPWPL,5243.5932,N,01014.4126,E,Position 79*54
$GPRMC,052525.000,A,5243.5932,N,01014.4126,E,15.2,,120717,,A*55
$GPZDA,052525.000,12,07,2017,,*53
$GPVTG,203.8,T,,M,15.2,N,28.2,K,A*0A
$GPGSA,A,3,,,,,,,,,,,,,22.2,3.6,21.9*3F
$GPGGA,052540.000,5243.5253,N,01014.3668,E,1,9,,65.8,M,,M,,*66
$GPWPL,5243.5253,N,01014.3668,E,Position 80*54
$GPRMC,052540.000,A,5243.5253,N,01014.3668,E,27.3,,120717,,A*50
$GPZDA,052540.000,12,07,2017,,*50
$GPVTG,203.5,T,,M,27.3,N,50.6,K,A*0C
$GPGSA,A,3,,,,,,,,,,,,,2.2,0.9,2.0*39
$GPGGA,052546.000,5243.4789,N,01014.3321,E,1,12,,66.2,M,,M,,*58
$GPWPL,5243.4789,N,01014.3321,E,Position 81*5E
$GPRMC,052546.000,A,5243.4789,N,01014.3321,E,31.6,,120717,,A*5F
$GPZDA,052546.000,12,07,2017,,*56
$GPVTG,203.1,T,,M,31.6,N,58.5,K,A*01
$GPGSA,A,3,,,,,,,,,,,,,1.4,0.7,1.3*32
$GPGGA,052606.000,5243.3259,N,01014.2234,E,1,10,,68.7,M,,M,,*5D
$GPWPL,5243.3259,N,01014.2234,E,Position 82*56
$GPRMC,052606.000,A,5243.3259,N,01014.2234,E,30.5,,120717,,A*51
$GPZDA,052606.000,12,07,2017,,*51
$GPVTG,202.6,T,,M,30.5,N,56.5,K,A*0B
$GPGSA,A,3,,,,,,,,,,,,,2.0,0.9,1.8*30
$GPGGA,052615.000,5243.2583,N,01014.1762,E,1,12,,71.3,M,,M,,*55
$GPWPL,5243.2583,N,01014.1762,E,Position 83*53
$GPRMC,052615.000,A,5243.2583,N,01014.1762,E,24.2,,120717,,A*55
$GPZDA,052615.000,12,07,2017,,*53
$GPVTG,193.9,T,,M,24.2,N,44.8,K,A*03
$GPGSA,A,3,,,,,,,,,,,,,1.6,0.7,1.4*37
$GPGGA,052616.000,5243.2515,N,01014.1729,E,1,5,,71.6,M,,M,,*65
$GPWPL,5243.2515,N,01014.1729,E,Position 84*54
$GPRMC,052616.000,A,5243.2515,N,01014.1729,E,29.5,,120717,,A*5C
$GPZDA,052616.000,12,07,2017,,*50
$GPVTG,204.2,T,,M,29.5,N,54.6,K,A*00
$GPGSA,A,3,,,,,,,,,,,,,3.4,2.0,2.7*32
$GPGGA,052623.000,5243.1986,N,01014.1350,E,1,10,,70.4,M,,M,,*5B
$GPWPL,5243.1986,N,01014.1350,E,Position 85*5A
$GPRMC,052623.000,A,5243.1986,N,01014.1350,E,33.4,,120717,,A*5F
$GPZDA,052623.000,12,07,2017,,*56
$GPVTG,195.1,T,,M,33.4,N,61.9,K,A*0B
$GPGSA,A,3,,,,,,,,,,,,,2.0,0.9,1.8*30
$GPGGA,052625.000,5243.1818,N,01014.1249,E,1,9,,67.2,M,,M,,*6A
$GPWPL,5243.1818,N,01014.1249,E,Position 86*56
$GPRMC,052625.000,A,5243.1818,N,01014.1249,E,27.3,,120717,,A*54
$GPZDA,052625.000,12,07,2017,,*50
$GPVTG,203.0,T,,M,27.3,N,50.6,K,A*09
$GPGSA,A,3,,,,,,,,,,,,,2.1,1.0,1.9*38
$GPGGA,052640.000,5243.0672,N,01014.0414,E,1,10,,72.8,M,,M,,*53
$GPWPL,5243.0672,N,01014.0414,E,Position 87*5B
$GPRMC,052640.000,A,5243.0672,N,01014.0414,E,28.0,,120717,,A*57
$GPZDA,052640.000,12,07,2017,,*53
$GPVTG,201.2,T,,M,28.0,N,51.9,K,A*0B
$GPGSA,A,3,,,,,,,,,,,,,2.0,0.9,1.8*30
$GPGGA,052645.000,5243.0330,N,01014.0207,E,1,10,,77.0,M,,M,,*5C
$GPWPL,5243.0330,N,01014.0207,E,Position 88*53
$GPRMC,052645.000,A,5243.0330,N,01014.0207,E,27.0,,120717,,A*5A
$GPZDA,052645.000,12,07,2017,,*56
$GPVTG,205.1,T,,M,27.0,N,50.0,K,A*0B
$GPGSA,A,3,,,,,,,,,,,,,2.0,0.9,1.8*30
$GPGGA,052652.000,5242.9833,N,01013.9876,E,1,9,,75.4,M,,M,,*66
$GPWPL,5242.9833,N,01013.9876,E,Position 89*50
$GPRMC,052652.000,A,5242.9833,N,01013.9876,E,29.1,,120717,,A*51
$GPZDA,052652.000,12,07,2017,,*50
$GPVTG,202.4,T,,M,29.1,N,53.9,K,A*0C
$GPGSA,A,3,,,,,,,,,,,,,2.2,0.9,2.0*39
$GPGGA,052702.000,5242.9090,N,01013.9323,E,1,5,,72.5,M,,M,,*62
$GPWPL,5242.9090,N,01013.9323,E,Position 90*52
$GPRMC,052702.000,A,5242.9090,N,01013.9323,E,24.0,,120717,,A*53
$GPZDA,052702.000,12,07,2017,,*54
$GPVTG,199.8,T,,M,24.0,N,44.4,K,A*06
$GPGSA,A,3,,,,,,,,,,,,,3.4,2.0,2.7*32
$GPGGA,052704.000,5242.8972,N,01013.9251,E,1,5,,69.8,M,,M,,*63
$GPWPL,5242.8972,N,01013.9251,E,Position 91*53
$GPRMC,052704.000,A,5242.8972,N,01013.9251,E,23.1,,120717,,A*53
$GPZDA,052704.000,12,07,2017,,*52
$GPVTG,203.0,T,,M,23.1,N,42.8,K,A*02
$GPGSA,A,3,,,,,,,,,,,,,3.4,2.0,2.7*32
$GPGGA,052706.000,5242.8828,N,01013.9132,E,1,12,,70.0,M,,M,,*5F
$GPWPL,5242.8828,N,01013.9132,E,Position 92*58
$GPRMC,052706.000,A,5242.8828,N,01013.9132,E,23.0,,120717,,A*58
$GPZDA,052706.000,12,07,2017,,*50
$GPVTG,202.4,T,,M,23.0,N,42.6,K,A*08
$GPGSA,A,3,,,,,,,,,,,,,1.6,0.8,1.4*38
$GPGGA,052711.000,5242.8479,N,01013.8909,E,1,12,,67.2,M,,M,,*54
$GPWPL,5242.8479,N,01013.8909,E,Position 93*50
$GPRMC,052711.000,A,5242.8479,N,01013.8909,E,23.8,,120717,,A*5F
$GPZDA,052711.000,12,07,2017,,*56
$GPVTG,205.4,T,,M,23.8,N,44.1,K,A*06
$GPGSA,A,3,,,,,,,,,,,,,1.4,0.7,1.1*30
$GPGGA,052719.000,5242.7979,N,01013.8517,E,1,12,,67.1,M,,M,,*5E
$GPWPL,5242.7979,N,01013.8517,E,Position 94*56
$GPRMC,052719.000,A,5242.7979,N,01013.8517,E,22.4,,120717,,A*5B
$GPZDA,052719.000,12,07,2017,,*5E
$GPVTG,198.7,T,,M,22.4,N,41.5,K,A*0E
$GPGSA,A,3,,,,,,,,,,,,,1.2,0.6,1.1*37
$GPGGA,052731.000,5242.7180,N,01013.7958,E,1,9,,67.5,M,,M,,*6C
$GPWPL,5242.7180,N,01013.7958,E,Position 95*51
$GPRMC,052731.000,A,5242.7180,N,01013.7958,E,25.8,,120717,,A*5C
$GPZDA,052731.000,12,07,2017,,*54
$GPVTG,207.7,T,,M,25.8,N,47.8,K,A*0B
$GPGSA,A,3,,,,,,,,,,,,,2.2,1.0,1.9*3B
$GPGGA,052739.000,5242.6656,N,01013.7565,E,1,9,,67.1,M,,M,,*6F
$GPWPL,5242.6656,N,01013.7565,E,Position 96*5D
$GPRMC,052739.000,A,5242.6656,N,01013.7565,E,26.1,,120717,,A*51
$GPZDA,052739.000,12,07,2017,,*5C
$GPVTG,203.6,T,,M,26.1,N,48.3,K,A*00
$GPGSA,A,3,,,,,,,,,,,,,2.2,0.9,2.0*39
$GPGGA,052749.000,5242.6019,N,01013.7136,E,1,9,,64.3,M,,M,,*66
$GPWPL,5242.6019,N,01013.7136,E,Position 97*53
$GPRMC,052749.000,A,5242.6019,N,01013.7136,E,22.7,,120717,,A*5B
$GPZDA,052749.000,12,07,2017,,*5B
$GPVTG,205.5,T,,M,22.7,N,42.0,K,A*0E
$GPGSA,A,3,,,,,,,,,,,,,2.2,1.0,1.9*3B
$GPGGA,052753.000,5242.5796,N,01013.6967,E,1,9,,63.6,M,,M,,*61
$GPWPL,5242.5796,N,01013.6967,E,Position 98*52
$GPRMC,052753.000,A,5242.5796,N,01013.6967,E,20.1,,120717,,A*5A
$GPZDA,052753.000,12,07,2017,,*50
$GPVTG,196.6,T,,M,20.1,N,37.2,K,A*00
$GPGSA,A,3,,,,,,,,,,,,,2.2,0.9,2.0*39
$GPGGA,052757.000,5242.5590,N,01013.6848,E,1,9,,64.5,M,,M,,*69
$GPWPL,5242.5590,N,01013.6848,E,Position 99*5B
$GPRMC,052757.000,A,5242.5590,N,01013.6848,E,18.1,,120717,,A*5D
$GPZDA,052757.000,12,07,2017,,*54
$GPVTG,205.5,T,,M,18.1,N,33.5,K,A*02
$GPGSA,A,3,,,,,,,,,,,,,2.1,1.0,1.9*38
$GPGGA,052807.000,5242.5241,N,01013.6571,E,1,9,,65.7,M,,M,,*6C
$GPWPL,5242.5241,N,01013.6571,E,Position 100*66
$GPRMC,052807.000,A,5242.5241,N,01013.6571,E,8.8,,120717,,A*63
$GPZDA,052807.000,12,07,2017,,*5E
$GPVTG,196.3,T,,M,8.8,N,16.3,K,A*34
$GPGSA,A,3,,,,,,,,,,,,,2.2,0.9,2.0*39
$GPGGA,052809.000,5242.5192,N,01013.6561,E,1,9,,65.7,M,,M,,*6E
$GPWPL,5242.5192,N,01013.6561,E,Position 101*6B
$GPRMC,052809.000,A,5242.5192,N,01013.6561,E,11.6,,120717,,A*57
$GPZDA,052809.000,12,07,2017,,*50
$GPVTG,166.5,T,,M,11.6,N,21.5,K,A*09
$GPGSA,A,3,,,,,,,,,,,,,2.2,0.9,2.0*39
$GPGGA,052818.000,5242.4869,N,01013.6683,E,1,9,,67.1,M,,M,,*69
$GPWPL,5242.4869,N,01013.6683,E,Position 102*6B
$GPRMC,052818.000,A,5242.4869,N,01013.6683,E,,,120717,,A*4C
$GPZDA,052818.000,12,07,2017,,*50
$GPGSA,A,3,,,,,,,,,,,,,2.2,0.9,2.0*39
$GPGGA,052821.000,5242.4796,N,01013.6734,E,1,10,,67.5,M,,M,,*5D
$GPWPL,5242.4796,N,01013.6734,E,Position 103*68
$GPRMC,052821.000,A,5242.4796,N,01013.6734,E,8.8,,120717,,A*6A
$GPZDA,052821.000,12,07,2017,,*5A
$GPVTG,170.5,T,,M,8.8,N,16.3,K,A*3A
$GPGSA,A,3,,,,,,,,,,,,,2.0,0.9,1.8*30
$GPGGA,052828.000,5242.4654,N,01013.6768,E,1,10,,66.0,M,,M,,*56
$GPWPL,5242.4654,N,01013.6768,E,Position 104*69
$GPRMC,052828.000,A,5242.4654,N,01013.6768,E,1.7,,120717,,A*63
$GPZDA,052828.000,12,07,2017,,*53
$GPVTG,167.6,T,,M,1.7,N,3.1,K,A*0F
$GPGSA,A,3,,,,,,,,,,,,,2.0,0.9,1.8*30
$GPGGA,052927.000,5242.4624,N,01013.6763,E,1,10,,64.2,M,,M,,*54
$GPWPL,5242.4624,N,01013.6763,E,Position 105*64
$GPRMC,052927.000,A,5242.4624,N,01013.6763,E,,,120717,,A*49
$GPZDA,052927.000,12,07,2017,,*5D
$GPGSA,A,3,,,,,,,,,,,,,2.3,1.0,2.0*30
$GPGGA,052958.000,5242.4642,N,01013.6760,E,1,9,,58.7,M,,M,,*6D
$GPWPL,5242.4642,N,01013.6760,E,Position 106*64
$GPRMC,052958.000,A,5242.4642,N,01013.6760,E,0.1,,120717,,A*6D
$GPZDA,052958.000,12,07,2017,,*55
$GPVTG,,T,,M,0.1,N,0.1,K,A*23
$GPGSA,A,3,,,,,,,,,,,,,2.1,1.0,1.8*39
$GPGGA,053027.000,5242.4620,N,01013.6788,E,1,10,,59.2,M,,M,,*53
$GPWPL,5242.4620,N,01013.6788,E,Position 107*67
$GPRMC,053027.000,A,5242.4620,N,01013.6788,E,8.2,,120717,,A*64
$GPZDA,053027.000,12,07,2017,,*55
$GPVTG,160.5,T,,M,8.2,N,15.2,K,A*33
$GPGSA,A,3,,,,,,,,,,,,,2.0,0.9,1.8*30
$GPGGA,053031.000,5242.4516,N,01013.6874,E,1,10,,61.0,M,,M,,*57
$GPWPL,5242.4516,N,01013.6874,E,Position 108*62
$GPRMC,053031.000,A,5242.4516,N,01013.6874,E,13.3,,120717,,A*52
$GPZDA,053031.000,12,07,2017,,*52
$GPVTG,139.7,T,,M,13.3,N,24.6,K,A*00
$GPGSA,A,3,,,,,,,,,,,,,2.0,0.9,1.8*30
$GPGGA,053037.000,5242.4264,N,01013.7185,E,1,10,,65.5,M,,M,,*54
$GPWPL,5242.4264,N,01013.7185,E,Position 109*67
$GPRMC,053037.000,A,5242.4264,N,01013.7185,E,,,120717,,A*4F
$GPZDA,053037.000,12,07,2017,,*54
$GPGSA,A,3,,,,,,,,,,,,,2.0,0.9,1.8*30
$GPGGA,053040.000,5242.4105,N,01013.7361,E,1,9,,67.6,M,,M,,*61
$GPWPL,5242.4105,N,01013.7361,E,Position 110*63
$GPRMC,053040.000,A,5242.4105,N,01013.7361,E,23.9,,120717,,A*55
$GPZDA,053040.000,12,07,2017,,*54
$GPVTG,144.4,T,,M,23.9,N,44.3,K,A*03
$GPGSA,A,3,,,,,,,,,,,,,2.2,0.9,1.9*33
$GPGGA,053049.000,5242.3687,N,01013.7888,E,1,12,,70.0,M,,M,,*54
$GPWPL,5242.3687,N,01013.7888,E,Position 111*64
$GPRMC,053049.000,A,5242.3687,N,01013.7888,E,18.5,,120717,,A*5E
$GPZDA,053049.000,12,07,2017,,*5D
$GPVTG,156.2,T,,M,18.5,N,34.3,K,A*05
$GPGSA,A,3,,,,,,,,,,,,,1.4,0.7,1.2*33
$GPGGA,053051.000,5242.3587,N,01013.7955,E,1,12,,68.5,M,,M,,*53
$GPWPL,5242.3587,N,01013.7955,E,Position 112*65
$GPRMC,053051.000,A,5242.3587,N,01013.7955,E,14.3,,120717,,A*5F
$GPZDA,053051.000,12,07,2017,,*54
$GPVTG,176.0,T,,M,14.3,N,26.5,K,A*0A
$GPGSA,A,3,,,,,,,,,,,,,1.4,0.7,1.2*33
$GPGGA,053053.000,5242.3506,N,01013.7971,E,1,12,,67.2,M,,M,,*56
$GPWPL,5242.3506,N,01013.7971,E,Position 113*6B
$GPRMC,053053.000,A,5242.3506,N,01013.7971,E,6.0,,120717,,A*62
$GPZDA,053053.000,12,07,2017,,*56
$GPVTG,191.7,T,,M,6.0,N,11.1,K,A*34
$GPGSA,A,3,,,,,,,,,,,,,1.5,0.7,1.3*33
$GPGGA,053057.000,5242.3449,N,01013.7961,E,1,12,,68.0,M,,M,,*54
$GPWPL,5242.3449,N,01013.7961,E,Position 114*67
$GPRMC,053057.000,A,5242.3449,N,01013.7961,E,8.8,,120717,,A*6B
$GPZDA,053057.000,12,07,2017,,*52
$GPVTG,162.7,T,,M,8.8,N,16.3,K,A*3B
$GPGSA,A,3,,,,,,,,,,,,,1.3,0.6,1.2*35
$GPGGA,053059.000,5242.3400,N,01013.7997,E,1,12,,68.2,M,,M,,*5C
$GPWPL,5242.3400,N,01013.7997,E,Position 115*62
$GPRMC,053059.000,A,5242.3400,N,01013.7997,E,13.7,,120717,,A*54
$GPZDA,053059.000,12,07,2017,,*5C
$GPVTG,130.2,T,,M,13.7,N,25.4,K,A*0B
$GPGSA,A,3,,,,,,,,,,,,,1.3,0.6,1.2*35
$GPGGA,053104.000,5242.3248,N,01013.8314,E,1,12,,68.0,M,,M,,*53
$GPWPL,5242.3248,N,01013.8314,E,Position 116*65
$GPRMC,053104.000,A,5242.3248,N,01013.8314,E,25.0,,120717,,A*5B
$GPZDA,053104.000,12,07,2017,,*55
$GPVTG,130.8,T,,M,25.0,N,46.3,K,A*01
$GPGSA,A,3,,,,,,,,,,,,,1.3,0.6,1.2*35
$GPGGA,053107.000,5242.3101,N,01013.8578,E,1,12,,67.6,M,,M,,*5B
$GPWPL,5242.3101,N,01013.8578,E,Position 117*66
$GPRMC,053107.000,A,5242.3101,N,01013.8578,E,28.7,,120717,,A*50
$GPZDA,053107.000,12,07,2017,,*56
$GPVTG,135.9,T,,M,28.7,N,53.2,K,A*0A
$GPGSA,A,3,,,,,,,,,,,,,1.3,0.6,1.2*35
$GPGGA,053109.000,5242.2983,N,01013.8761,E,1,12,,67.3,M,,M,,*59
$GPWPL,5242.2983,N,01013.8761,E,Position 118*60
$GPRMC,053109.000,A,5242.2983,N,01013.8761,E,31.1,,120717,,A*59
$GPZDA,053109.000,12,07,2017,,*58
$GPVTG,140.2,T,,M,31.1,N,57.6,K,A*0D
$GPGSA,A,3,,,,,,,,,,,,,1.3,0.6,1.2*35
$GPGGA,053111.000,5242.2849,N,01013.8942,E,1,12,,67.2,M,,M,,*59
$GPWPL,5242.2849,N,01013.8942,E,Position 119*69
$GPRMC,053111.000,A,5242.2849,N,01013.8942,E,31.8,,120717,,A*51
$GPZDA,053111.000,12,07,2017,,*51
$GPVTG,142.6,T,,M,31.8,N,58.9,K,A*02
$GPGSA,A,3,,,,,,,,,,,,,1.3,0.6,1.2*35
$GPGGA,053144.000,5242.0692,N,01014.1653,E,1,5,,66.6,M,,M,,*61
$GPWPL,5242.0692,N,01014.1653,E,Position 120*68
$GPRMC,053144.000,A,5242.0692,N,01014.1653,E,24.1,,120717,,A*57
$GPZDA,053144.000,12,07,2017,,*51
$GPVTG,142.9,T,,M,24.1,N,44.6,K,A*02
$GPGSA,A,3,,,,,,,,,,,,,3.2,1.9,2.6*3F
$GPGGA,053153.000,5242.0375,N,01014.2046,E,1,6,,66.8,M,,M,,*67
$GPWPL,5242.0375,N,01014.2046,E,Position 121*64
$GPRMC,053153.000,A,5242.0375,N,01014.2046,E,0.3,,120717,,A*68
$GPZDA,053153.000,12,07,2017,,*57
$GPVTG,,T,,M,0.3,N,0.6,K,A*26
$GPGSA,A,3,,,,,,,,,,,,,3.0,1.6,2.5*31
$GPGGA,053230.000,5242.0359,N,01014.2043,E,1,10,,65.8,M,,M,,*5E
$GPWPL,5242.0359,N,01014.2043,E,Position 122*6C
$GPRMC,053230.000,A,5242.0359,N,01014.2043,E,0.8,,120717,,A*6E
$GPZDA,053230.000,12,07,2017,,*51
$GPVTG,142.8,T,,M,0.8,N,1.5,K,A*0E
$GPGSA,A,3,,,,,,,,,,,,,2.0,0.9,1.8*30
$GPGGA,053251.000,5241.9464,N,01014.3202,E,1,8,,59.8,M,,M,,*6A
$GPWPL,5241.9464,N,01014.3202,E,Position 123*68
$GPRMC,053251.000,A,5241.9464,N,01014.3202,E,25.7,,120717,,A*54
$GPZDA,053251.000,12,07,2017,,*56
$GPVTG,142.7,T,,M,25.7,N,47.6,K,A*08
$GPGSA,A,3,,,,,,,,,,,,,2.4,1.1,2.1*37
$GPGGA,053315.000,5241.7866,N,01014.5196,E,1,9,,54.0,M,,M,,*67
$GPWPL,5241.7866,N,01014.5196,E,Position 124*67
$GPRMC,053315.000,A,5241.7866,N,01014.5196,E,32.6,,120717,,A*5A
$GPZDA,053315.000,12,07,2017,,*57
$GPVTG,140.3,T,,M,32.6,N,60.4,K,A*0E
$GPGSA,A,3,,,,,,,,,,,,,2.3,1.1,2.0*31
$GPGGA,053320.000,5241.7506,N,01014.5672,E,1,9,,48.0,M,,M,,*6A
$GPWPL,5241.7506,N,01014.5672,E,Position 125*60
$GPRMC,053320.000,A,5241.7506,N,01014.5672,E,35.5,,120717,,A*5E
$GPZDA,053320.000,12,07,2017,,*51
$GPVTG,145.7,T,,M,35.5,N,65.7,K,A*0D
$GPGSA,A,3,,,,,,,,,,,,,2.1,1.0,1.9*38
$GPGGA,053330.000,5241.6663,N,01014.6708,E,1,12,,53.0,M,,M,,*55
$GPWPL,5241.6663,N,01014.6708,E,Position 126*6D
$GPRMC,053330.000,A,5241.6663,N,01014.6708,E,36.9,,120717,,A*5E
$GPZDA,053330.000,12,07,2017,,*50
$GPVTG,146.1,T,,M,36.9,N,68.3,K,A*0E
$GPGSA,A,3,,,,,,,,,,,,,1.5,0.7,1.3*33
$GPGGA,053332.000,5241.6487,N,01014.6907,E,1,12,,54.5,M,,M,,*5C
$GPWPL,5241.6487,N,01014.6907,E,Position 127*65
$GPRMC,053332.000,A,5241.6487,N,01014.6907,E,37.5,,120717,,A*58
$GPZDA,053332.000,12,07,2017,,*52
$GPVTG,142.1,T,,M,37.5,N,69.5,K,A*00
$GPGSA,A,3,,,,,,,,,,,,,1.6,0.7,1.4*37
$GPGGA,053336.000,5241.6155,N,01014.7325,E,1,12,,55.2,M,,M,,*5F
$GPWPL,5241.6155,N,01014.7325,E,Position 128*6B
$GPRMC,053336.000,A,5241.6155,N,01014.7325,E,35.5,,120717,,A*5F
$GPZDA,053336.000,12,07,2017,,*56
$GPVTG,143.8,T,,M,35.5,N,65.7,K,A*04
$GPGSA,A,3,,,,,,,,,,,,,1.5,0.7,1.3*33
$GPGGA,053340.000,5241.5844,N,01014.7691,E,1,12,,56.1,M,,M,,*5E
$GPWPL,5241.5844,N,01014.7691,E,Position 129*6A
$GPRMC,053340.000,A,5241.5844,N,01014.7691,E,30.6,,120717,,A*58
$GPZDA,053340.000,12,07,2017,,*57
$GPVTG,144.9,T,,M,30.6,N,56.7,K,A*04
$GPGSA,A,3,,,,,,,,,,,,,1.8,0.8,1.6*34
$GPGGA,053344.000,5241.5601,N,01014.8009,E,1,12,,51.3,M,,M,,*58
$GPWPL,5241.5601,N,01014.8009,E,Position 130*65
$GPRMC,053344.000,A,5241.5601,N,01014.8009,E,27.9,,120717,,A*52
$GPZDA,053344.000,12,07,2017,,*53
$GPVTG,147.6,T,,M,27.9,N,51.7,K,A*06
$GPGSA,A,3,,,,,,,,,,,,,1.6,0.7,1.4*37
$GPGGA,053351.000,5241.5145,N,01014.8507,E,1,12,,51.7,M,,M,,*54
$GPWPL,5241.5145,N,01014.8507,E,Position 131*68
$GPRMC,053351.000,A,5241.5145,N,01014.8507,E,26.3,,120717,,A*51
$GPZDA,053351.000,12,07,2017,,*57
$GPVTG,144.4,T,,M,26.3,N,48.7,K,A*04
$GPGSA,A,3,,,,,,,,,,,,,1.5,0.7,1.3*33
$GPGGA,053409.000,5241.4063,N,01014.9749,E,1,12,,53.1,M,,M,,*57
$GPWPL,5241.4063,N,01014.9749,E,Position 132*66
$GPRMC,053409.000,A,5241.4063,N,01014.9749,E,26.3,,120717,,A*56
$GPZDA,053409.000,12,07,2017,,*5D
$GPVTG,142.9,T,,M,26.3,N,48.7,K,A*0F
$GPGSA,A,3,,,,,,,,,,,,,1.8,0.8,1.6*34
$GPGGA,053414.000,5241.3775,N,01015.0114,E,1,12,,51.4,M,,M,,*5D
$GPWPL,5241.3775,N,01015.0114,E,Position 133*66
$GPRMC,053414.000,A,5241.3775,N,01015.0114,E,25.9,,120717,,A*52
$GPZDA,053414.000,12,07,2017,,*51
$GPVTG,145.5,T,,M,25.9,N,48.0,K,A*0A
$GPGSA,A,3,,,,,,,,,,,,,1.6,0.7,1.4*37
$GPGGA,053418.000,5241.3535,N,01015.0380,E,1,12,,53.2,M,,M,,*5C
$GPWPL,5241.3535,N,01015.0380,E,Position 134*68
$GPRMC,053418.000,A,5241.3535,N,01015.0380,E,26.0,,120717,,A*5D
$GPZDA,053418.000,12,07,2017,,*5D
$GPVTG,148.2,T,,M,26.0,N,48.2,K,A*08
$GPGSA,A,3,,,,,,,,,,,,,2.0,0.9,1.8*30
$GPGGA,053422.000,5241.3286,N,01015.0622,E,1,12,,51.4,M,,M,,*53
$GPWPL,5241.3286,N,01015.0622,E,Position 135*6B
$GPRMC,053422.000,A,5241.3286,N,01015.0622,E,26.0,,120717,,A*56
$GPZDA,053422.000,12,07,2017,,*54
$GPVTG,153.3,T,,M,26.0,N,48.2,K,A*03
$GPGSA,A,3,,,,,,,,,,,,,1.5,0.7,1.3*33
$GPGGA,053424.000,5241.3156,N,01015.0726,E,1,12,,51.4,M,,M,,*5E
$GPWPL,5241.3156,N,01015.0726,E,Position 136*63
$GPRMC,053424.000,A,5241.3156,N,01015.0726,E,25.9,,120717,,A*51
$GPZDA,053424.000,12,07,2017,,*52
$GPVTG,157.9,T,,M,25.9,N,48.0,K,A*05
$GPGSA,A,3,,,,,,,,,,,,,1.6,0.7,1.4*37
$GPGGA,053427.000,5241.2956,N,01015.0845,E,1,12,,52.1,M,,M,,*58
$GPWPL,5241.2956,N,01015.0845,E,Position 137*61
$GPRMC,053427.000,A,5241.2956,N,01015.0845,E,25.9,,120717,,A*51
$GPZDA,053427.000,12,07,2017,,*51
$GPVTG,164.4,T,,M,25.9,N,48.0,K,A*08
$GPGSA,A,3,,,,,,,,,,,,,1.4,0.7,1.2*33
$GPGGA,053439.000,5241.2139,N,01015.1176,E,1,12,,51.6,M,,M,,*5A
$GPWPL,5241.2139,N,01015.1176,E,Position 138*67
$GPRMC,053439.000,A,5241.2139,N,01015.1176,E,25.3,,120717,,A*5D
$GPZDA,053439.000,12,07,2017,,*5E
$GPVTG,167.4,T,,M,25.3,N,46.9,K,A*06
$GPGSA,A,3,,,,,,,,,,,,,1.4,0.7,1.2*33
$GPGGA,053455.000,5241.1011,N,01015.1571,E,1,5,,50.8,M,,M,,*62
$GPWPL,5241.1011,N,01015.1571,E,Position 139*6D
$GPRMC,053455.000,A,5241.1011,N,01015.1571,E,25.9,,120717,,A*56
$GPZDA,053455.000,12,07,2017,,*54
$GPVTG,169.5,T,,M,25.9,N,48.0,K,A*04
$GPGSA,A,3,,,,,,,,,,,,,3.2,1.9,2.6*3F
$GPGGA,053459.000,5241.0728,N,01015.1653,E,1,8,,51.6,M,,M,,*63
$GPWPL,5241.0728,N,01015.1653,E,Position 140*6C
$GPRMC,053459.000,A,5241.0728,N,01015.1653,E,24.9,,120717,,A*54
$GPZDA,053459.000,12,07,2017,,*58
$GPVTG,177.9,T,,M,24.9,N,46.1,K,A*09
$GPGSA,A,3,,,,,,,,,,,,,2.3,1.1,2.1*30
$GPGGA,053500.000,5241.0659,N,01015.1660,E,1,8,,50.1,M,,M,,*6F
$GPWPL,5241.0659,N,01015.1660,E,Position 141*6A
$GPRMC,053500.000,A,5241.0659,N,01015.1660,E,25.3,,120717,,A*55
$GPZDA,053500.000,12,07,2017,,*55
$GPVTG,183.4,T,,M,25.3,N,46.9,K,A*0C
$GPGSA,A,3,,,,,,,,,,,,,2.3,1.1,2.1*30
$GPGGA,053503.000,5241.0442,N,01015.1630,E,1,8,,50.4,M,,M,,*64
$GPWPL,5241.0442,N,01015.1630,E,Position 142*64
$GPRMC,053503.000,A,5241.0442,N,01015.1630,E,26.0,,120717,,A*5B
$GPZDA,053503.000,12,07,2017,,*56
$GPVTG,185.9,T,,M,26.0,N,48.2,K,A*02
$GPGSA,A,3,,,,,,,,,,,,,2.6,1.2,2.3*34
$GPGGA,053514.000,5240.9736,N,01015.1494,E,1,3,,55.4,M,,M,,*68
$GPWPL,5240.9736,N,01015.1494,E,Position 143*61
$GPRMC,053514.000,A,5240.9736,N,01015.1494,E,16.4,,120717,,A*5E
$GPZDA,053514.000,12,07,2017,,*50
$GPVTG,188.1,T,,M,16.4,N,30.4,K,A*09
$GPGSA,A,3,,,,,,,,,,,,,2.5,2.3,1.0*35
$GPGGA,053523.000,5240.9511,N,01015.1426,E,1,12,,53.3,M,,M,,*53
$GPWPL,5240.9511,N,01015.1426,E,Position 144*68
$GPRMC,053523.000,A,5240.9511,N,01015.1426,E,0.3,,120717,,A*64
$GPZDA,053523.000,12,07,2017,,*54
$GPVTG,,T,,M,0.3,N,0.6,K,A*26
$GPGSA,A,3,,,,,,,,,,,,,1.5,0.7,1.3*33
$GPGGA,053554.000,5240.9501,N,01015.1411,E,1,12,,52.9,M,,M,,*5D
$GPWPL,5240.9501,N,01015.1411,E,Position 145*6C
$GPRMC,053554.000,A,5240.9501,N,01015.1411,E,,,120717,,A*4C
$GPZDA,053554.000,12,07,2017,,*54
$GPGSA,A,3,,,,,,,,,,,,,1.4,0.6,1.2*32
$GPGGA,053652.000,5240.9513,N,01015.1397,E,1,12,,52.8,M,,M,,*53
$GPWPL,5240.9513,N,01015.1397,E,Position 146*65
$GPRMC,053652.000,A,5240.9513,N,01015.1397,E,,,120717,,A*43
$GPZDA,053652.000,12,07,2017,,*51
$GPGSA,A,3,,,,,,,,,,,,,1.3,0.6,1.1*36
$GPGGA,053726.000,5240.9502,N,01015.1387,E,1,12,,51.5,M,,M,,*5E
$GPWPL,5240.9502,N,01015.1387,E,Position 147*65
$GPRMC,053726.000,A,5240.9502,N,01015.1387,E,4.2,,120717,,A*68
$GPZDA,053726.000,12,07,2017,,*53
$GPVTG,180.4,T,,M,4.2,N,7.8,K,A*09
$GPGSA,A,3,,,,,,,,,,,,,1.3,0.6,1.2*35
$GPGGA,053731.000,5240.9379,N,01015.1395,E,1,12,,51.3,M,,M,,*57
$GPWPL,5240.9379,N,01015.1395,E,Position 148*63
$GPRMC,053731.000,A,5240.9379,N,01015.1395,E,16.7,,120717,,A*51
$GPZDA,053731.000,12,07,2017,,*55
$GPVTG,186.5,T,,M,16.7,N,30.9,K,A*0D
$GPGSA,A,3,,,,,,,,,,,,,1.3,0.6,1.1*36
$GPGGA,053740.000,5240.8822,N,01015.1318,E,1,12,,52.9,M,,M,,*59
$GPWPL,5240.8822,N,01015.1318,E,Position 149*63
$GPRMC,053740.000,A,5240.8822,N,01015.1318,E,24.5,,120717,,A*55
$GPZDA,053740.000,12,07,2017,,*53
$GPVTG,185.1,T,,M,24.5,N,45.4,K,A*06
$GPGSA,A,3,,,,,,,,,,,,,1.4,0.7,1.2*33
$GPGGA,053804.000,5240.7140,N,01015.1047,E,1,12,,54.5,M,,M,,*57
$GPWPL,5240.7140,N,01015.1047,E,Position 150*60
$GPRMC,053804.000,A,5240.7140,N,01015.1047,E,26.0,,120717,,A*56
$GPZDA,053804.000,12,07,2017,,*5C
$GPVTG,185.5,T,,M,26.0,N,48.2,K,A*0E
$GPGSA,A,3,,,,,,,,,,,,,1.5,0.7,1.3*33
$GPGGA,053827.000,5240.5492,N,01015.0808,E,1,12,,57.6,M,,M,,*5C
$GPWPL,5240.5492,N,01015.0808,E,Position 151*6B
$GPRMC,053827.000,A,5240.5492,N,01015.0808,E,24.8,,120717,,A*57
$GPZDA,053827.000,12,07,2017,,*5D
$GPVTG,183.7,T,,M,24.8,N,45.9,K,A*06
$GPGSA,A,3,,,,,,,,,,,,,1.6,0.8,1.4*38
$GPGGA,053837.000,5240.4677,N,01015.0734,E,1,12,,65.8,M,,M,,*5A
$GPWPL,5240.4677,N,01015.0734,E,Position 152*60
$GPRMC,053837.000,A,5240.4677,N,01015.0734,E,37.4,,120717,,A*50
$GPZDA,053837.000,12,07,2017,,*5C
$GPVTG,185.9,T,,M,37.4,N,69.3,K,A*04
$GPGSA,A,3,,,,,,,,,,,,,1.4,0.7,1.2*33
$GPGGA,053842.000,5240.4156,N,01015.0651,E,1,12,,69.1,M,,M,,*5B
$GPWPL,5240.4156,N,01015.0651,E,Position 153*67
$GPRMC,053842.000,A,5240.4156,N,01015.0651,E,39.2,,120717,,A*5C
$GPZDA,053842.000,12,07,2017,,*5E
$GPVTG,185.9,T,,M,39.2,N,72.6,K,A*03
$GPGSA,A,3,,,,,,,,,,,,,1.4,0.7,1.2*33
$GPGGA,053845.000,5240.3805,N,01015.0544,E,1,12,,63.2,M,,M,,*5A
$GPWPL,5240.3805,N,01015.0544,E,Position 154*6F
$GPRMC,053845.000,A,5240.3805,N,01015.0544,E,38.8,,120717,,A*5F
$GPZDA,053845.000,12,07,2017,,*59
$GPVTG,185.6,T,,M,38.8,N,71.9,K,A*0B
$GPGSA,A,3,,,,,,,,,,,,,1.4,0.7,1.2*33
$GPGGA,053849.000,5240.3356,N,01015.0476,E,1,12,,61.4,M,,M,,*5F
$GPWPL,5240.3356,N,01015.0476,E,Position 155*63
$GPRMC,053849.000,A,5240.3356,N,01015.0476,E,38.4,,120717,,A*52
$GPZDA,053849.000,12,07,2017,,*55
$GPVTG,180.1,T,,M,38.4,N,71.1,K,A*0D
$GPGSA,A,3,,,,,,,,,,,,,1.3,0.6,1.2*35
$GPGGA,053851.000,5240.3141,N,01015.0475,E,1,12,,61.1,M,,M,,*54
$GPWPL,5240.3141,N,01015.0475,E,Position 156*67
$GPRMC,053851.000,A,5240.3141,N,01015.0475,E,37.7,,120717,,A*50
$GPZDA,053851.000,12,07,2017,,*5C
$GPVTG,176.4,T,,M,37.7,N,69.8,K,A*0D
$GPGSA,A,3,,,,,,,,,,,,,1.4,0.7,1.2*33
$GPGGA,053909.000,5240.1298,N,01015.0652,E,1,6,,56.7,M,,M,,*6D
$GPWPL,5240.1298,N,01015.0652,E,Position 157*64
$GPRMC,053909.000,A,5240.1298,N,01015.0652,E,35.4,,120717,,A*5F
$GPZDA,053909.000,12,07,2017,,*50
$GPVTG,178.1,T,,M,35.4,N,65.6,K,A*05
$GPGSA,A,3,,,,,,,,,,,,,2.7,1.6,2.2*30
$GPGGA,053917.000,5240.0498,N,01015.0714,E,1,10,,55.5,M,,M,,*50
$GPWPL,5240.0498,N,01015.0714,E,Position 158*6F
$GPRMC,053917.000,A,5240.0498,N,01015.0714,E,35.0,,120717,,A*50
$GPZDA,053917.000,12,07,2017,,*5F
$GPVTG,175.1,T,,M,35.0,N,64.8,K,A*03
$GPGSA,A,3,,,,,,,,,,,,,1.9,0.9,1.7*35
$GPGGA,053948.000,5239.7346,N,01015.1031,E,1,8,,53.4,M,,M,,*68
$GPWPL,5239.7346,N,01015.1031,E,Position 159*62
$GPRMC,053948.000,A,5239.7346,N,01015.1031,E,36.3,,120717,,A*56
$GPZDA,053948.000,12,07,2017,,*55
$GPVTG,172.2,T,,M,36.3,N,67.2,K,A*0E
$GPGSA,A,3,,,,,,,,,,,,,2.0,1.0,1.7*37
$GPGGA,053950.000,5239.7142,N,01015.1075,E,1,8,,51.8,M,,M,,*69
$GPWPL,5239.7142,N,01015.1075,E,Position 160*6E
$GPRMC,053950.000,A,5239.7142,N,01015.1075,E,34.2,,120717,,A*5A
$GPZDA,053950.000,12,07,2017,,*5C
$GPVTG,163.3,T,,M,34.2,N,63.3,K,A*09
$GPGSA,A,3,,,,,,,,,,,,,2.0,1.0,1.7*37
$GPGGA,054003.000,5239.5967,N,01015.1599,E,1,6,,66.6,M,,M,,*6F
$GPWPL,5239.5967,N,01015.1599,E,Position 161*65
$GPRMC,054003.000,A,5239.5967,N,01015.1599,E,34.5,,120717,,A*5F
$GPZDA,054003.000,12,07,2017,,*54
$GPVTG,165.4,T,,M,34.5,N,63.9,K,A*05
$GPGSA,A,3,,,,,,,,,,,,,2.7,1.6,2.2*30
$GPGGA,054011.000,5239.5238,N,01015.1893,E,1,5,,70.0,M,,M,,*68
$GPWPL,5239.5238,N,01015.1893,E,Position 162*60
$GPRMC,054011.000,A,5239.5238,N,01015.1893,E,33.5,,120717,,A*5D
$GPZDA,054011.000,12,07,2017,,*57
$GPVTG,164.7,T,,M,33.5,N,62.0,K,A*08
$GPGSA,A,3,,,,,,,,,,,,,3.1,1.8,2.5*3E
$GPGGA,054027.000,5239.3635,N,01015.2570,E,1,12,,56.5,M,,M,,*56
$GPWPL,5239.3635,N,01015.2570,E,Position 163*6D
$GPRMC,054027.000,A,5239.3635,N,01015.2570,E,36.0,,120717,,A*54
$GPZDA,054027.000,12,07,2017,,*52
$GPVTG,165.3,T,,M,36.0,N,66.7,K,A*0E
$GPGSA,A,3,,,,,,,,,,,,,1.3,0.6,1.1*36
$GPGGA,054124.000,5238.8733,N,01015.4695,E,1,10,,54.8,M,,M,,*5A
$GPWPL,5238.8733,N,01015.4695,E,Position 164*69
$GPRMC,054124.000,A,5238.8733,N,01015.4695,E,25.9,,120717,,A*5E
$GPZDA,054124.000,12,07,2017,,*50
$GPVTG,169.6,T,,M,25.9,N,48.0,K,A*07
$GPGSA,A,3,,,,,,,,,,,,,1.9,0.9,1.6*34
$GPGGA,054126.000,5238.8589,N,01015.4732,E,1,9,,52.6,M,,M,,*67
$GPWPL,5238.8589,N,01015.4732,E,Position 165*67
$GPRMC,054126.000,A,5238.8589,N,01015.4732,E,25.4,,120717,,A*5E
$GPZDA,054126.000,12,07,2017,,*52
$GPVTG,176.7,T,,M,25.4,N,47.0,K,A*0A
$GPGSA,A,3,,,,,,,,,,,,,1.9,1.0,1.6*3C
$GPGGA,054129.000,5238.8370,N,01015.4741,E,1,9,,51.4,M,,M,,*6D
$GPWPL,5238.8370,N,01015.4741,E,Position 166*60
$GPRMC,054129.000,A,5238.8370,N,01015.4741,E,22.5,,120717,,A*53
$GPZDA,054129.000,12,07,2017,,*5D
$GPVTG,186.9,T,,M,22.5,N,41.7,K,A*0C
$GPGSA,A,3,,,,,,,,,,,,,1.9,0.9,1.7*35
$GPGGA,054132.000,5238.8172,N,01015.4697,E,1,9,,51.8,M,,M,,*61
$GPWPL,5238.8172,N,01015.4697,E,Position 167*6B
$GPRMC,054132.000,A,5238.8172,N,01015.4697,E,24.6,,120717,,A*56
$GPZDA,054132.000,12,07,2017,,*57
$GPVTG,194.3,T,,M,24.6,N,45.6,K,A*05
$GPGSA,A,3,,,,,,,,,,,,,1.9,0.9,1.7*35
$GPGGA,054138.000,5238.7767,N,01015.4540,E,1,9,,51.7,M,,M,,*60
$GPWPL,5238.7767,N,01015.4540,E,Position 168*60
$GPRMC,054138.000,A,5238.7767,N,01015.4540,E,23.3,,120717,,A*5A
$GPZDA,054138.000,12,07,2017,,*5D
$GPVTG,184.0,T,,M,23.3,N,43.2,K,A*07
$GPGSA,A,3,,,,,,,,,,,,,2.0,1.0,1.8*38
$GPGGA,054146.000,5238.7169,N,01015.4390,E,1,12,,50.9,M,,M,,*5F
$GPWPL,5238.7169,N,01015.4390,E,Position 169*62
$GPRMC,054146.000,A,5238.7169,N,01015.4390,E,26.0,,120717,,A*56
$GPZDA,054146.000,12,07,2017,,*54
$GPVTG,178.8,T,,M,26.0,N,48.2,K,A*01
$GPGSA,A,3,,,,,,,,,,,,,1.6,0.7,1.4*37
$GPGGA,054152.000,5238.6762,N,01015.4386,E,1,12,,48.2,M,,M,,*53
$GPWPL,5238.6762,N,01015.4386,E,Position 170*61
$GPRMC,054152.000,A,5238.6762,N,01015.4386,E,12.3,,120717,,A*5C
$GPZDA,054152.000,12,07,2017,,*51
$GPVTG,181.7,T,,M,12.3,N,22.8,K,A*0A
$GPGSA,A,3,,,,,,,,,,,,,1.6,0.7,1.4*37
$GPGGA,054157.000,5238.6651,N,01015.4366,E,1,12,,46.9,M,,M,,*5C
$GPWPL,5238.6651,N,01015.4366,E,Position 171*6F
$GPRMC,054157.000,A,5238.6651,N,01015.4366,E,9.2,,120717,,A*6D
$GPZDA,054157.000,12,07,2017,,*54
$GPVTG,160.4,T,,M,9.2,N,17.0,K,A*33
$GPGSA,A,3,,,,,,,,,,,,,1.4,0.7,1.2*33
$GPGGA,054159.000,5238.6604,N,01015.4398,E,1,12,,47.1,M,,M,,*5A
$GPWPL,5238.6604,N,01015.4398,E,Position 172*6D
$GPRMC,054159.000,A,5238.6604,N,01015.4398,E,11.0,,120717,,A*59
$GPZDA,054159.000,12,07,2017,,*5A
$GPVTG,138.5,T,,M,11.0,N,20.4,K,A*04
$GPGSA,A,3,,,,,,,,,,,,,1.3,0.6,1.2*35
$GPGGA,054202.000,5238.6533,N,01015.4489,E,1,12,,47.7,M,,M,,*51
$GPWPL,5238.6533,N,01015.4489,E,Position 173*6C
$GPRMC,054202.000,A,5238.6533,N,01015.4489,E,13.0,,120717,,A*56
$GPZDA,054202.000,12,07,2017,,*57
$GPVTG,151.6,T,,M,13.0,N,24.1,K,A*0B
$GPGSA,A,3,,,,,,,,,,,,,1.4,0.7,1.2*33
$GPGGA,054204.000,5238.6466,N,01015.4539,E,1,12,,49.5,M,,M,,*50
$GPWPL,5238.6466,N,01015.4539,E,Position 174*60
$GPRMC,054204.000,A,5238.6466,N,01015.4539,E,15.8,,120717,,A*55
$GPZDA,054204.000,12,07,2017,,*51
$GPVTG,169.4,T,,M,15.8,N,29.3,K,A*03
$GPGSA,A,3,,,,,,,,,,,,,1.3,0.6,1.2*35
$GPGGA,054206.000,5238.6377,N,01015.4565,E,1,12,,48.0,M,,M,,*58
$GPWPL,5238.6377,N,01015.4565,E,Position 175*6F
$GPRMC,054206.000,A,5238.6377,N,01015.4565,E,17.6,,120717,,A*55
$GPZDA,054206.000,12,07,2017,,*53
$GPVTG,178.6,T,,M,17.6,N,32.6,K,A*02
$GPGSA,A,3,,,,,,,,,,,,,1.4,0.7,1.2*33
$GPGGA,054211.000,5238.6112,N,01015.4593,E,1,12,,44.1,M,,M,,*5B
$GPWPL,5238.6112,N,01015.4593,E,Position 176*64
$GPRMC,054211.000,A,5238.6112,N,01015.4593,E,18.9,,120717,,A*5B
$GPZDA,054211.000,12,07,2017,,*55
$GPVTG,155.7,T,,M,18.9,N,35.0,K,A*0D
$GPGSA,A,3,,,,,,,,,,,,,1.4,0.7,1.2*33
$GPGGA,054213.000,5238.6016,N,01015.4666,E,1,12,,43.3,M,,M,,*50
$GPWPL,5238.6016,N,01015.4666,E,Position 177*69
$GPRMC,054213.000,A,5238.6016,N,01015.4666,E,19.5,,120717,,A*58
$GPZDA,054213.000,12,07,2017,,*57
$GPVTG,136.2,T,,M,19.5,N,36.1,K,A*02
$GPGSA,A,3,,,,,,,,,,,,,1.5,0.7,1.3*33
$GPGGA,054214.000,5238.5974,N,01015.4723,E,1,12,,43.1,M,,M,,*5B
$GPWPL,5238.5974,N,01015.4723,E,Position 178*68
$GPRMC,054214.000,A,5238.5974,N,01015.4723,E,19.9,,120717,,A*5D
$GPZDA,054214.000,12,07,2017,,*50
$GPVTG,127.2,T,,M,19.9,N,36.9,K,A*06
$GPGSA,A,3,,,,,,,,,,,,,1.3,0.6,1.1*36
$GPGGA,054218.000,5238.5846,N,01015.5008,E,1,12,,42.6,M,,M,,*5E
$GPWPL,5238.5846,N,01015.5008,E,Position 179*66
$GPRMC,054218.000,A,5238.5846,N,01015.5008,E,19.9,,120717,,A*5E
$GPZDA,054218.000,12,07,2017,,*5C
$GPVTG,130.4,T,,M,19.9,N,36.9,K,A*06
$GPGSA,A,3,,,,,,,,,,,,,1.3,0.7,1.1*37
$GPGGA,054220.000,5238.5773,N,01015.5146,E,1,12,,41.9,M,,M,,*5B
$GPWPL,5238.5773,N,01015.5146,E,Position 180*62
$GPRMC,054220.000,A,5238.5773,N,01015.5146,E,20.4,,120717,,A*50
$GPZDA,054220.000,12,07,2017,,*57
$GPVTG,138.4,T,,M,20.4,N,37.8,K,A*09
$GPGSA,A,3,,,,,,,,,,,,,1.3,0.6,1.1*36
$GPGGA,054232.000,5238.5234,N,01015.5863,E,1,12,,40.8,M,,M,,*50
$GPWPL,5238.5234,N,01015.5863,E,Position 181*6B
$GPRMC,054232.000,A,5238.5234,N,01015.5863,E,14.0,,120717,,A*58
$GPZDA,054232.000,12,07,2017,,*54
$GPVTG,150.2,T,,M,14.0,N,25.9,K,A*00
$GPGSA,A,3,,,,,,,,,,,,,1.4,0.7,1.3*32
$GPGGA,054247.000,5238.5063,N,01015.6026,E,1,12,,42.8,M,,M,,*5A
$GPWPL,5238.5063,N,01015.6026,E,Position 182*62
$GPRMC,054247.000,A,5238.5063,N,01015.6026,E,0.1,,120717,,A*64
$GPZDA,054247.000,12,07,2017,,*56
$GPVTG,,T,,M,0.1,N,0.1,K,A*23
$GPGSA,A,3,,,,,,,,,,,,,1.3,0.6,1.1*36
$GPGGA,054330.000,5238.5039,N,01015.6029,E,1,10,,49.2,M,,M,,*58
$GPWPL,5238.5039,N,01015.6029,E,Position 183*63
$GPRMC,054330.000,A,5238.5039,N,01015.6029,E,,,120717,,A*4A
$GPZDA,054330.000,12,07,2017,,*57
$GPGSA,A,3,,,,,,,,,,,,,1.9,0.9,1.7*35
$GPGGA,054340.000,5238.5034,N,01015.6048,E,1,10,,48.4,M,,M,,*52
$GPWPL,5238.5034,N,01015.6048,E,Position 184*6E
$GPRMC,054340.000,A,5238.5034,N,01015.6048,E,0.1,,120717,,A*68
$GPZDA,054340.000,12,07,2017,,*50
$GPVTG,,T,,M,0.1,N,0.1,K,A*23
$GPGSA,A,3,,,,,,,,,,,,,1.8,0.9,1.6*35
$GPGGA,054353.000,5238.5050,N,01015.6057,E,1,10,,57.1,M,,M,,*57
$GPWPL,5238.5050,N,01015.6057,E,Position 185*63
$GPRMC,054353.000,A,5238.5050,N,01015.6057,E,,,120717,,A*49
$GPZDA,054353.000,12,07,2017,,*52
$GPGSA,A,3,,,,,,,,,,,,,1.9,1.0,1.6*3C
$GPGGA,054357.000,5238.5049,N,01015.6068,E,1,9,,59.6,M,,M,,*66
$GPWPL,5238.5049,N,01015.6068,E,Position 186*64
$GPRMC,054357.000,A,5238.5049,N,01015.6068,E,,,120717,,A*49
$GPZDA,054357.000,12,07,2017,,*56
$GPGSA,A,3,,,,,,,,,,,,,1.9,0.9,1.6*34
$GPGGA,054423.000,5238.4932,N,01015.6232,E,1,8,,56.2,M,,M,,*61
$GPWPL,5238.4932,N,01015.6232,E,Position 187*6C
$GPRMC,054423.000,A,5238.4932,N,01015.6232,E,16.2,,120717,,A*5F
$GPZDA,054423.000,12,07,2017,,*52
$GPVTG,144.7,T,,M,16.2,N,30.0,K,A*0D
$GPGSA,A,3,,,,,,,,,,,,,2.0,1.0,1.7*37
$GPGGA,054433.000,5238.4467,N,01015.6761,E,1,12,,52.8,M,,M,,*5B
$GPWPL,5238.4467,N,01015.6761,E,Position 188*6D
$GPRMC,054433.000,A,5238.4467,N,01015.6761,E,24.8,,120717,,A*5B
$GPZDA,054433.000,12,07,2017,,*53
$GPVTG,145.7,T,,M,24.8,N,45.9,K,A*0C
$GPGSA,A,3,,,,,,,,,,,,,1.4,0.7,1.3*32
$GPGGA,054436.000,5238.4286,N,01015.6945,E,1,12,,52.8,M,,M,,*5F
$GPWPL,5238.4286,N,01015.6945,E,Position 189*6D
$GPRMC,054436.000,A,5238.4286,N,01015.6945,E,25.5,,120717,,A*53
$GPZDA,054436.000,12,07,2017,,*56
$GPVTG,154.9,T,,M,25.5,N,47.2,K,A*07
$GPGSA,A,3,,,,,,,,,,,,,1.4,0.7,1.2*33
$GPGGA,054438.000,5238.4157,N,01015.7043,E,1,12,,51.0,M,,M,,*5B
$GPWPL,5238.4157,N,01015.7043,E,Position 190*64
$GPRMC,054438.000,A,5238.4157,N,01015.7043,E,25.3,,120717,,A*5A
$GPZDA,054438.000,12,07,2017,,*58
$GPVTG,158.6,T,,M,25.3,N,46.9,K,A*08
$GPGSA,A,3,,,,,,,,,,,,,1.3,0.6,1.1*36
$GPGGA,054459.000,5238.2742,N,01015.7971,E,1,10,,50.1,M,,M,,*52
$GPWPL,5238.2742,N,01015.7971,E,Position 191*69
$GPRMC,054459.000,A,5238.2742,N,01015.7971,E,30.3,,120717,,A*55
$GPZDA,054459.000,12,07,2017,,*5F
$GPVTG,160.0,T,,M,30.3,N,56.1,K,A*08
$GPGSA,A,3,,,,,,,,,,,,,1.8,0.9,1.6*35
$GPGGA,054516.000,5238.1310,N,01015.8771,E,1,12,,51.9,M,,M,,*52
$GPWPL,5238.1310,N,01015.8771,E,Position 192*6B
$GPRMC,054516.000,A,5238.1310,N,01015.8771,E,30.0,,120717,,A*5D
$GPZDA,054516.000,12,07,2017,,*55
$GPVTG,156.0,T,,M,30.0,N,55.6,K,A*0A
$GPGSA,A,3,,,,,,,,,,,,,1.3,0.6,1.1*36
$GPGGA,054518.000,5238.1160,N,01015.8879,E,1,12,,51.2,M,,M,,*55
$GPWPL,5238.1160,N,01015.8879,E,Position 193*68
$GPRMC,054518.000,A,5238.1160,N,01015.8879,E,27.2,,120717,,A*55
$GPZDA,054518.000,12,07,2017,,*5B
$GPVTG,150.8,T,,M,27.2,N,50.4,K,A*07
$GPGSA,A,3,,,,,,,,,,,,,1.3,0.6,1.2*35
$GPGGA,054520.000,5238.1021,N,01015.9006,E,1,12,,50.9,M,,M,,*51
$GPWPL,5238.1021,N,01015.9006,E,Position 194*6A
$GPRMC,054520.000,A,5238.1021,N,01015.9006,E,30.2,,120717,,A*5D
$GPZDA,054520.000,12,07,2017,,*50
$GPVTG,144.2,T,,M,30.2,N,55.9,K,A*06
$GPGSA,A,3,,,,,,,,,,,,,1.3,0.7,1.1*37
$GPGGA,054522.000,5238.0890,N,01015.9164,E,1,12,,53.0,M,,M,,*5F
$GPWPL,5238.0890,N,01015.9164,E,Position 195*6D
$GPRMC,054522.000,A,5238.0890,N,01015.9164,E,26.9,,120717,,A*55
$GPZDA,054522.000,12,07,2017,,*52
$GPVTG,137.3,T,,M,26.9,N,49.8,K,A*03
$GPGSA,A,3,,,,,,,,,,,,,1.3,0.6,1.1*36
$GPGGA,054525.000,5238.0715,N,01015.9439,E,1,12,,53.0,M,,M,,*57
$GPWPL,5238.0715,N,01015.9439,E,Position 196*61
$GPRMC,054525.000,A,5238.0715,N,01015.9439,E,29.1,,120717,,A*5A
$GPZDA,054525.000,12,07,2017,,*55
$GPVTG,130.4,T,,M,29.1,N,53.9,K,A*0E
$GPGSA,A,3,,,,,,,,,,,,,1.4,0.7,1.2*33
$GPGGA,054528.000,5238.0557,N,01015.9755,E,1,12,,47.0,M,,M,,*52
$GPWPL,5238.0557,N,01015.9755,E,Position 197*6D
$GPRMC,054528.000,A,5238.0557,N,01015.9755,E,26.1,,120717,,A*55
$GPZDA,054528.000,12,07,2017,,*58
$GPVTG,126.0,T,,M,26.1,N,48.3,K,A*02
$GPGSA,A,3,,,,,,,,,,,,,1.4,0.7,1.2*33
$GPGGA,054534.000,5238.0304,N,01016.0330,E,1,12,,42.2,M,,M,,*55
$GPWPL,5238.0304,N,01016.0330,E,Position 198*6F
$GPRMC,054534.000,A,5238.0304,N,01016.0330,E,15.3,,120717,,A*57
$GPZDA,054534.000,12,07,2017,,*55
$GPVTG,131.6,T,,M,15.3,N,28.3,K,A*06
$GPGSA,A,3,,,,,,,,,,,,,1.3,0.7,1.1*37
$GPGGA,054536.000,5238.0247,N,01016.0440,E,1,12,,40.4,M,,M,,*55
$GPWPL,5238.0247,N,01016.0440,E,Position 199*68
$GPRMC,054536.000,A,5238.0247,N,01016.0440,E,10.3,,120717,,A*56
$GPZDA,054536.000,12,07,2017,,*57
$GPVTG,140.6,T,,M,10.3,N,19.1,K,A*05
$GPGSA,A,3,,,,,,,,,,,,,1.3,0.6,1.1*36
$GPGGA,054538.000,5238.0195,N,01016.0502,E,1,12,,41.2,M,,M,,*57
$GPWPL,5238.0195,N,01016.0502,E,Position 200*60
$GPRMC,054538.000,A,5238.0195,N,01016.0502,E,8.1,,120717,,A*68
$GPZDA,054538.000,12,07,2017,,*59
$GPVTG,179.1,T,,M,8.1,N,15.0,K,A*3E
$GPGSA,A,3,,,,,,,,,,,,,1.4,0.7,1.2*33
$GPGGA,054540.000,5238.0146,N,01016.0496,E,1,12,,41.1,M,,M,,*59
$GPWPL,5238.0146,N,01016.0496,E,Position 201*63
$GPRMC,054540.000,A,5238.0146,N,01016.0496,E,9.5,,120717,,A*60
$GPZDA,054540.000,12,07,2017,,*56
$GPVTG,212.8,T,,M,9.5,N,17.6,K,A*38
$GPGSA,A,3,,,,,,,,,,,,,1.3,0.6,1.1*36
$GPGGA,054542.000,5238.0100,N,01016.0444,E,1,12,,41.0,M,,M,,*57
$GPWPL,5238.0100,N,01016.0444,E,Position 202*6D
$GPRMC,054542.000,A,5238.0100,N,01016.0444,E,12.9,,120717,,A*59
$GPZDA,054542.000,12,07,2017,,*54
$GPVTG,231.8,T,,M,12.9,N,23.9,K,A*07
$GPGSA,A,3,,,,,,,,,,,,,1.3,0.6,1.1*36
$GPGGA,054547.000,5237.9951,N,01016.0190,E,1,5,,44.8,M,,M,,*6F
$GPWPL,5237.9951,N,01016.0190,E,Position 203*6A
$GPRMC,054547.000,A,5237.9951,N,01016.0190,E,21.8,,120717,,A*5B
$GPZDA,054547.000,12,07,2017,,*51
$GPVTG,229.6,T,,M,21.8,N,40.4,K,A*09
$GPGSA,A,3,,,,,,,,,,,,,3.2,1.9,2.5*3C
$GPGGA,054552.000,5237.9738,N,01015.9769,E,1,10,,52.5,M,,M,,*5E
$GPWPL,5237.9738,N,01015.9769,E,Position 204*66
$GPRMC,054552.000,A,5237.9738,N,01015.9769,E,29.6,,120717,,A*52
$GPZDA,054552.000,12,07,2017,,*55
$GPVTG,231.1,T,,M,29.6,N,54.8,K,A*08
$GPGSA,A,3,,,,,,,,,,,,,1.8,0.9,1.5*36
$GPGGA,054555.000,5237.9578,N,01015.9429,E,1,10,,51.7,M,,M,,*59
$GPWPL,5237.9578,N,01015.9429,E,Position 205*66
$GPRMC,054555.000,A,5237.9578,N,01015.9429,E,35.1,,120717,,A*5E
$GPZDA,054555.000,12,07,2017,,*52
$GPVTG,232.6,T,,M,35.1,N,65.0,K,A*0C
$GPGSA,A,3,,,,,,,,,,,,,1.8,0.9,1.5*36
$GPGGA,054601.000,5237.9228,N,01015.8613,E,1,9,,46.9,M,,M,,*63
$GPWPL,5237.9228,N,01015.8613,E,Position 206*6D
$GPRMC,054601.000,A,5237.9228,N,01015.8613,E,35.6,,120717,,A*53
$GPZDA,054601.000,12,07,2017,,*50
$GPVTG,232.9,T,,M,35.6,N,65.9,K,A*0D
$GPGSA,A,3,,,,,,,,,,,,,1.9,0.9,1.6*34
$GPGGA,054622.000,5237.7996,N,01015.5910,E,1,10,,46.4,M,,M,,*56
$GPWPL,5237.7996,N,01015.5910,E,Position 207*6D
$GPRMC,054622.000,A,5237.7996,N,01015.5910,E,33.8,,120717,,A*5B
$GPZDA,054622.000,12,07,2017,,*51
$GPVTG,227.0,T,,M,33.8,N,62.6,K,A*00
$GPGSA,A,3,,,,,,,,,,,,,1.9,0.9,1.6*34
$GPGGA,054623.000,5237.7934,N,01015.5794,E,1,10,,46.2,M,,M,,*5B
$GPWPL,5237.7934,N,01015.5794,E,Position 208*68
$GPRMC,054623.000,A,5237.7934,N,01015.5794,E,34.1,,120717,,A*5E
$GPZDA,054623.000,12,07,2017,,*50
$GPVTG,234.7,T,,M,34.1,N,63.2,K,A*0E
$GPGSA,A,3,,,,,,,,,,,,,1.8,0.9,1.5*36
$GPGGA,054632.000,5237.7449,N,01015.4751,E,1,5,,49.2,M,,M,,*6F
$GPWPL,5237.7449,N,01015.4751,E,Position 209*66
